[
  {
    "region_type": "Респ",
    "region": "Адыгея",
    "city": "Адыгейск",
    "geo_lat": 44.878414,
    "geo_lon": 39.190289
  },
  {
    "region_type": "Респ",
    "region": "Адыгея",
    "city": "Майкоп",
    "geo_lat": 44.6098268,
    "geo_lon": 40.1006606
  },
  {
    "region_type": "Респ",
    "region": "Алтай",
    "city": "Горно-Алтайск",
    "geo_lat": 51.9581028,
    "geo_lon": 85.9603235
  },
  {
    "region_type": "край",
    "region": "Алтайский",
    "city": "Алейск",
    "geo_lat": 52.4922513,
    "geo_lon": 82.7793606
  },
  {
    "region_type": "край",
    "region": "Алтайский",
    "city": "Барнаул",
    "geo_lat": 53.3479968,
    "geo_lon": 83.7798064
  },
  {
    "region_type": "край",
    "region": "Алтайский",
    "city": "Белокуриха",
    "geo_lat": 51.996152,
    "geo_lon": 84.9839604
  },
  {
    "region_type": "край",
    "region": "Алтайский",
    "city": "Бийск",
    "geo_lat": 52.5393864,
    "geo_lon": 85.2138453
  },
  {
    "region_type": "край",
    "region": "Алтайский",
    "city": "Горняк",
    "geo_lat": 50.9979622,
    "geo_lon": 81.4643358
  },
  {
    "region_type": "край",
    "region": "Алтайский",
    "city": "Заринск",
    "geo_lat": 53.7063476,
    "geo_lon": 84.9315081
  },
  {
    "region_type": "край",
    "region": "Алтайский",
    "city": "Змеиногорск",
    "geo_lat": 51.1581094,
    "geo_lon": 82.1872547
  },
  {
    "region_type": "край",
    "region": "Алтайский",
    "city": "Камень-на-Оби",
    "geo_lat": 53.7913974,
    "geo_lon": 81.3545053
  },
  {
    "region_type": "край",
    "region": "Алтайский",
    "city": "Новоалтайск",
    "geo_lat": 53.4119759,
    "geo_lon": 83.9311069
  },
  {
    "region_type": "край",
    "region": "Алтайский",
    "city": "Рубцовск",
    "geo_lat": 51.5012067,
    "geo_lon": 81.2078695
  },
  {
    "region_type": "край",
    "region": "Алтайский",
    "city": "Славгород",
    "geo_lat": 52.999463,
    "geo_lon": 78.6459232
  },
  {
    "region_type": "край",
    "region": "Алтайский",
    "city": "Яровое",
    "geo_lat": 52.9252146,
    "geo_lon": 78.5729775
  },
  {
    "region_type": "обл",
    "region": "Амурская",
    "city": "Белогорск",
    "geo_lat": 50.9213415,
    "geo_lon": 128.4739471
  },
  {
    "region_type": "обл",
    "region": "Амурская",
    "city": "Благовещенск",
    "geo_lat": 50.290659,
    "geo_lon": 127.527198
  },
  {
    "region_type": "обл",
    "region": "Амурская",
    "city": "Завитинск",
    "geo_lat": 50.1064111,
    "geo_lon": 129.4391813
  },
  {
    "region_type": "обл",
    "region": "Амурская",
    "city": "Зея",
    "geo_lat": 53.7340088,
    "geo_lon": 127.265787
  },
  {
    "region_type": "обл",
    "region": "Амурская",
    "city": "Райчихинск",
    "geo_lat": 49.7941615,
    "geo_lon": 129.4112492
  },
  {
    "region_type": "обл",
    "region": "Амурская",
    "city": "Свободный",
    "geo_lat": 51.3614103,
    "geo_lon": 128.1219729
  },
  {
    "region_type": "обл",
    "region": "Амурская",
    "city": "Сковородино",
    "geo_lat": 53.9871095,
    "geo_lon": 123.9437205
  },
  {
    "region_type": "обл",
    "region": "Амурская",
    "city": "Тында",
    "geo_lat": 55.1546441,
    "geo_lon": 124.7468904
  },
  {
    "region_type": "обл",
    "region": "Амурская",
    "city": "Циолковский",
    "geo_lat": 51.762481,
    "geo_lon": 128.1219846
  },
  {
    "region_type": "обл",
    "region": "Амурская",
    "city": "Шимановск",
    "geo_lat": 52.0051886,
    "geo_lon": 127.7005458
  },
  {
    "region_type": "обл",
    "region": "Архангельская",
    "city": "Архангельск",
    "geo_lat": 64.5394289,
    "geo_lon": 40.5169606
  },
  {
    "region_type": "обл",
    "region": "Архангельская",
    "city": "Вельск",
    "geo_lat": 61.066,
    "geo_lon": 42.1032789
  },
  {
    "region_type": "обл",
    "region": "Архангельская",
    "city": "Каргополь",
    "geo_lat": 61.5009724,
    "geo_lon": 38.9636966
  },
  {
    "region_type": "обл",
    "region": "Архангельская",
    "city": "Коряжма",
    "geo_lat": 61.2885948,
    "geo_lon": 47.1003015
  },
  {
    "region_type": "обл",
    "region": "Архангельская",
    "city": "Котлас",
    "geo_lat": 61.2528972,
    "geo_lon": 46.633242
  },
  {
    "region_type": "обл",
    "region": "Архангельская",
    "city": "Мезень",
    "geo_lat": 65.8398078,
    "geo_lon": 44.2532273
  },
  {
    "region_type": "обл",
    "region": "Архангельская",
    "city": "Мирный",
    "geo_lat": 62.7645265,
    "geo_lon": 40.3360076
  },
  {
    "region_type": "обл",
    "region": "Архангельская",
    "city": "Новодвинск",
    "geo_lat": 64.4136851,
    "geo_lon": 40.8208143
  },
  {
    "region_type": "обл",
    "region": "Архангельская",
    "city": "Няндома",
    "geo_lat": 61.6654674,
    "geo_lon": 40.2062947
  },
  {
    "region_type": "обл",
    "region": "Архангельская",
    "city": "Онега",
    "geo_lat": 63.9162928,
    "geo_lon": 38.0805031
  },
  {
    "region_type": "обл",
    "region": "Архангельская",
    "city": "Северодвинск",
    "geo_lat": 64.5625385,
    "geo_lon": 39.8180934
  },
  {
    "region_type": "обл",
    "region": "Архангельская",
    "city": "Сольвычегодск",
    "geo_lat": 61.3319616,
    "geo_lon": 46.920441
  },
  {
    "region_type": "обл",
    "region": "Архангельская",
    "city": "Шенкурск",
    "geo_lat": 62.1057272,
    "geo_lon": 42.8996973
  },
  {
    "region_type": "обл",
    "region": "Астраханская",
    "city": "Астрахань",
    "geo_lat": 46.3655652,
    "geo_lon": 48.0559236
  },
  {
    "region_type": "обл",
    "region": "Астраханская",
    "city": "Ахтубинск",
    "geo_lat": 48.2752034,
    "geo_lon": 46.1906462
  },
  {
    "region_type": "обл",
    "region": "Астраханская",
    "city": "Знаменск",
    "geo_lat": 48.5866291,
    "geo_lon": 45.7368019
  },
  {
    "region_type": "обл",
    "region": "Астраханская",
    "city": "Камызяк",
    "geo_lat": 46.110579,
    "geo_lon": 48.07333
  },
  {
    "region_type": "обл",
    "region": "Астраханская",
    "city": "Нариманов",
    "geo_lat": 46.6916565,
    "geo_lon": 47.8502476
  },
  {
    "region_type": "обл",
    "region": "Астраханская",
    "city": "Харабали",
    "geo_lat": 47.408999,
    "geo_lon": 47.2525345
  },
  {
    "region_type": "Респ",
    "region": "Башкортостан",
    "city": "Агидель",
    "geo_lat": 55.8999056,
    "geo_lon": 53.9220144
  },
  {
    "region_type": "Респ",
    "region": "Башкортостан",
    "city": "Баймак",
    "geo_lat": 52.5912896,
    "geo_lon": 58.3110998
  },
  {
    "region_type": "Респ",
    "region": "Башкортостан",
    "city": "Белебей",
    "geo_lat": 54.1034582,
    "geo_lon": 54.1113129
  },
  {
    "region_type": "Респ",
    "region": "Башкортостан",
    "city": "Белорецк",
    "geo_lat": 53.9676488,
    "geo_lon": 58.4100419
  },
  {
    "region_type": "Респ",
    "region": "Башкортостан",
    "city": "Бирск",
    "geo_lat": 55.4155753,
    "geo_lon": 55.5582214
  },
  {
    "region_type": "Респ",
    "region": "Башкортостан",
    "city": "Благовещенск",
    "geo_lat": 55.0499867,
    "geo_lon": 55.9553186
  },
  {
    "region_type": "Респ",
    "region": "Башкортостан",
    "city": "Давлеканово",
    "geo_lat": 54.2226707,
    "geo_lon": 55.0312373
  },
  {
    "region_type": "Респ",
    "region": "Башкортостан",
    "city": "Дюртюли",
    "geo_lat": 55.4848318,
    "geo_lon": 54.8524765
  },
  {
    "region_type": "Респ",
    "region": "Башкортостан",
    "city": "Ишимбай",
    "geo_lat": 53.4545764,
    "geo_lon": 56.0438751
  },
  {
    "region_type": "Респ",
    "region": "Башкортостан",
    "city": "Кумертау",
    "geo_lat": 52.7564939,
    "geo_lon": 55.7970197
  },
  {
    "region_type": "Респ",
    "region": "Башкортостан",
    "city": "Межгорье",
    "geo_lat": 54.2397689,
    "geo_lon": 57.9614547
  },
  {
    "region_type": "Респ",
    "region": "Башкортостан",
    "city": "Мелеуз",
    "geo_lat": 52.9589532,
    "geo_lon": 55.9282838
  },
  {
    "region_type": "Респ",
    "region": "Башкортостан",
    "city": "Нефтекамск",
    "geo_lat": 56.088377,
    "geo_lon": 54.2483061
  },
  {
    "region_type": "Респ",
    "region": "Башкортостан",
    "city": "Октябрьский",
    "geo_lat": 54.4815311,
    "geo_lon": 53.4655972
  },
  {
    "region_type": "Респ",
    "region": "Башкортостан",
    "city": "Салават",
    "geo_lat": 53.3616974,
    "geo_lon": 55.9245224
  },
  {
    "region_type": "Респ",
    "region": "Башкортостан",
    "city": "Сибай",
    "geo_lat": 52.7204651,
    "geo_lon": 58.6663783
  },
  {
    "region_type": "Респ",
    "region": "Башкортостан",
    "city": "Стерлитамак",
    "geo_lat": 53.6300864,
    "geo_lon": 55.9317089
  },
  {
    "region_type": "Респ",
    "region": "Башкортостан",
    "city": "Туймазы",
    "geo_lat": 54.5999224,
    "geo_lon": 53.6950623
  },
  {
    "region_type": "Респ",
    "region": "Башкортостан",
    "city": "Уфа",
    "geo_lat": 54.734944,
    "geo_lon": 55.9578468
  },
  {
    "region_type": "Респ",
    "region": "Башкортостан",
    "city": "Учалы",
    "geo_lat": 54.3067375,
    "geo_lon": 59.4125461
  },
  {
    "region_type": "Респ",
    "region": "Башкортостан",
    "city": "Янаул",
    "geo_lat": 56.2650146,
    "geo_lon": 54.929907
  },
  {
    "region_type": "обл",
    "region": "Белгородская",
    "city": "Алексеевка",
    "geo_lat": 50.6299647,
    "geo_lon": 38.6880342
  },
  {
    "region_type": "обл",
    "region": "Белгородская",
    "city": "Белгород",
    "geo_lat": 50.5976472,
    "geo_lon": 36.5856652
  },
  {
    "region_type": "обл",
    "region": "Белгородская",
    "city": "Бирюч",
    "geo_lat": 50.6484585,
    "geo_lon": 38.4005083
  },
  {
    "region_type": "обл",
    "region": "Белгородская",
    "city": "Валуйки",
    "geo_lat": 50.2111207,
    "geo_lon": 38.0998772
  },
  {
    "region_type": "обл",
    "region": "Белгородская",
    "city": "Грайворон",
    "geo_lat": 50.4862958,
    "geo_lon": 35.6663877
  },
  {
    "region_type": "обл",
    "region": "Белгородская",
    "city": "Губкин",
    "geo_lat": 51.2837123,
    "geo_lon": 37.5347759
  },
  {
    "region_type": "обл",
    "region": "Белгородская",
    "city": "Короча",
    "geo_lat": 50.8129041,
    "geo_lon": 37.1896436
  },
  {
    "region_type": "обл",
    "region": "Белгородская",
    "city": "Новый Оскол",
    "geo_lat": 50.7633747,
    "geo_lon": 37.8775484
  },
  {
    "region_type": "обл",
    "region": "Белгородская",
    "city": "Старый Оскол",
    "geo_lat": 51.2967101,
    "geo_lon": 37.8350182
  },
  {
    "region_type": "обл",
    "region": "Белгородская",
    "city": "Строитель",
    "geo_lat": 50.7845099,
    "geo_lon": 36.4887648
  },
  {
    "region_type": "обл",
    "region": "Белгородская",
    "city": "Шебекино",
    "geo_lat": 50.4004883,
    "geo_lon": 36.8877889
  },
  {
    "region_type": "обл",
    "region": "Брянская",
    "city": "Брянск",
    "geo_lat": 53.2419535,
    "geo_lon": 34.3652146
  },
  {
    "region_type": "обл",
    "region": "Брянская",
    "city": "Дятьково",
    "geo_lat": 53.5958178,
    "geo_lon": 34.3551812
  },
  {
    "region_type": "обл",
    "region": "Брянская",
    "city": "Жуковка",
    "geo_lat": 53.5340397,
    "geo_lon": 33.7302579
  },
  {
    "region_type": "обл",
    "region": "Брянская",
    "city": "Злынка",
    "geo_lat": 52.4267015,
    "geo_lon": 31.7360399
  },
  {
    "region_type": "обл",
    "region": "Брянская",
    "city": "Карачев",
    "geo_lat": 53.1296524,
    "geo_lon": 34.9888727
  },
  {
    "region_type": "обл",
    "region": "Брянская",
    "city": "Клинцы",
    "geo_lat": 52.7529119,
    "geo_lon": 32.233911
  },
  {
    "region_type": "обл",
    "region": "Брянская",
    "city": "Мглин",
    "geo_lat": 53.0599771,
    "geo_lon": 32.8468129
  },
  {
    "region_type": "обл",
    "region": "Брянская",
    "city": "Новозыбков",
    "geo_lat": 52.537173,
    "geo_lon": 31.9357991
  },
  {
    "region_type": "обл",
    "region": "Брянская",
    "city": "Почеп",
    "geo_lat": 52.9154851,
    "geo_lon": 33.4744058
  },
  {
    "region_type": "обл",
    "region": "Брянская",
    "city": "Севск",
    "geo_lat": 52.1483358,
    "geo_lon": 34.4918415
  },
  {
    "region_type": "обл",
    "region": "Брянская",
    "city": "Сельцо",
    "geo_lat": 53.3739884,
    "geo_lon": 34.1059172
  },
  {
    "region_type": "обл",
    "region": "Брянская",
    "city": "Стародуб",
    "geo_lat": 52.5852257,
    "geo_lon": 32.760403
  },
  {
    "region_type": "обл",
    "region": "Брянская",
    "city": "Сураж",
    "geo_lat": 53.0170888,
    "geo_lon": 32.3938878
  },
  {
    "region_type": "обл",
    "region": "Брянская",
    "city": "Трубчевск",
    "geo_lat": 52.5791734,
    "geo_lon": 33.7660547
  },
  {
    "region_type": "обл",
    "region": "Брянская",
    "city": "Унеча",
    "geo_lat": 52.8461199,
    "geo_lon": 32.6757629
  },
  {
    "region_type": "обл",
    "region": "Брянская",
    "city": "Фокино",
    "geo_lat": 53.4554145,
    "geo_lon": 34.4159238
  },
  {
    "region_type": "Респ",
    "region": "Бурятия",
    "city": "Бабушкин",
    "geo_lat": 51.7112755,
    "geo_lon": 105.8673219
  },
  {
    "region_type": "Респ",
    "region": "Бурятия",
    "city": "Гусиноозерск",
    "geo_lat": 51.2865048,
    "geo_lon": 106.5230319
  },
  {
    "region_type": "Респ",
    "region": "Бурятия",
    "city": "Закаменск",
    "geo_lat": 50.372713,
    "geo_lon": 103.286699
  },
  {
    "region_type": "Респ",
    "region": "Бурятия",
    "city": "Кяхта",
    "geo_lat": 50.346543,
    "geo_lon": 106.4533516
  },
  {
    "region_type": "Респ",
    "region": "Бурятия",
    "city": "Северобайкальск",
    "geo_lat": 55.635614,
    "geo_lon": 109.3361505
  },
  {
    "region_type": "Респ",
    "region": "Бурятия",
    "city": "Улан-Удэ",
    "geo_lat": 51.8335853,
    "geo_lon": 107.5842223
  },
  {
    "region_type": "обл",
    "region": "Владимирская",
    "city": "Александров",
    "geo_lat": 56.391819,
    "geo_lon": 38.7111123
  },
  {
    "region_type": "обл",
    "region": "Владимирская",
    "city": "Владимир",
    "geo_lat": 56.1280804,
    "geo_lon": 40.4084376
  },
  {
    "region_type": "обл",
    "region": "Владимирская",
    "city": "Вязники",
    "geo_lat": 56.29773,
    "geo_lon": 42.2687398
  },
  {
    "region_type": "обл",
    "region": "Владимирская",
    "city": "Гороховец",
    "geo_lat": 56.2021036,
    "geo_lon": 42.6926111
  },
  {
    "region_type": "обл",
    "region": "Владимирская",
    "city": "Гусь-Хрустальный",
    "geo_lat": 55.6198751,
    "geo_lon": 40.6579929
  },
  {
    "region_type": "обл",
    "region": "Владимирская",
    "city": "Камешково",
    "geo_lat": 56.3490152,
    "geo_lon": 40.9955183
  },
  {
    "region_type": "обл",
    "region": "Владимирская",
    "city": "Карабаново",
    "geo_lat": 56.3131822,
    "geo_lon": 38.7034257
  },
  {
    "region_type": "обл",
    "region": "Владимирская",
    "city": "Киржач",
    "geo_lat": 56.1486863,
    "geo_lon": 38.8635701
  },
  {
    "region_type": "обл",
    "region": "Владимирская",
    "city": "Ковров",
    "geo_lat": 56.3554349,
    "geo_lon": 41.3170576
  },
  {
    "region_type": "обл",
    "region": "Владимирская",
    "city": "Кольчугино",
    "geo_lat": 56.3327254,
    "geo_lon": 39.391336
  },
  {
    "region_type": "обл",
    "region": "Владимирская",
    "city": "Костерево",
    "geo_lat": 55.9337222,
    "geo_lon": 39.6247398
  },
  {
    "region_type": "обл",
    "region": "Владимирская",
    "city": "Курлово",
    "geo_lat": 55.452698,
    "geo_lon": 40.6124108
  },
  {
    "region_type": "обл",
    "region": "Владимирская",
    "city": "Лакинск",
    "geo_lat": 56.0180587,
    "geo_lon": 39.956551
  },
  {
    "region_type": "обл",
    "region": "Владимирская",
    "city": "Меленки",
    "geo_lat": 55.3387515,
    "geo_lon": 41.6340046
  },
  {
    "region_type": "обл",
    "region": "Владимирская",
    "city": "Муром",
    "geo_lat": 55.5630311,
    "geo_lon": 42.0231362
  },
  {
    "region_type": "обл",
    "region": "Владимирская",
    "city": "Петушки",
    "geo_lat": 55.9298134,
    "geo_lon": 39.4508075
  },
  {
    "region_type": "обл",
    "region": "Владимирская",
    "city": "Покров",
    "geo_lat": 55.9166398,
    "geo_lon": 39.1734526
  },
  {
    "region_type": "обл",
    "region": "Владимирская",
    "city": "Радужный",
    "geo_lat": 55.9960277,
    "geo_lon": 40.3321855
  },
  {
    "region_type": "обл",
    "region": "Владимирская",
    "city": "Собинка",
    "geo_lat": 55.9939169,
    "geo_lon": 40.0179653
  },
  {
    "region_type": "обл",
    "region": "Владимирская",
    "city": "Струнино",
    "geo_lat": 56.3749967,
    "geo_lon": 38.5839667
  },
  {
    "region_type": "обл",
    "region": "Владимирская",
    "city": "Судогда",
    "geo_lat": 55.9498056,
    "geo_lon": 40.8562939
  },
  {
    "region_type": "обл",
    "region": "Владимирская",
    "city": "Суздаль",
    "geo_lat": 56.4274441,
    "geo_lon": 40.4525692
  },
  {
    "region_type": "обл",
    "region": "Владимирская",
    "city": "Юрьев-Польский",
    "geo_lat": 56.4937757,
    "geo_lon": 39.6680539
  },
  {
    "region_type": "обл",
    "region": "Волгоградская",
    "city": "Волгоград",
    "geo_lat": 48.7070042,
    "geo_lon": 44.5170339
  },
  {
    "region_type": "обл",
    "region": "Волгоградская",
    "city": "Волжский",
    "geo_lat": 48.7978209,
    "geo_lon": 44.7462538
  },
  {
    "region_type": "обл",
    "region": "Волгоградская",
    "city": "Дубовка",
    "geo_lat": 49.0554742,
    "geo_lon": 44.8270085
  },
  {
    "region_type": "обл",
    "region": "Волгоградская",
    "city": "Жирновск",
    "geo_lat": 50.9768814,
    "geo_lon": 44.7858202
  },
  {
    "region_type": "обл",
    "region": "Волгоградская",
    "city": "Калач-на-Дону",
    "geo_lat": 48.6889024,
    "geo_lon": 43.5306303
  },
  {
    "region_type": "обл",
    "region": "Волгоградская",
    "city": "Камышин",
    "geo_lat": 50.0651529,
    "geo_lon": 45.3844202
  },
  {
    "region_type": "обл",
    "region": "Волгоградская",
    "city": "Котельниково",
    "geo_lat": 47.6310259,
    "geo_lon": 43.1330872
  },
  {
    "region_type": "обл",
    "region": "Волгоградская",
    "city": "Котово",
    "geo_lat": 50.3205766,
    "geo_lon": 44.8030699
  },
  {
    "region_type": "обл",
    "region": "Волгоградская",
    "city": "Краснослободск",
    "geo_lat": 48.7068721,
    "geo_lon": 44.5630857
  },
  {
    "region_type": "обл",
    "region": "Волгоградская",
    "city": "Ленинск",
    "geo_lat": 48.6936061,
    "geo_lon": 45.1992692
  },
  {
    "region_type": "обл",
    "region": "Волгоградская",
    "city": "Михайловка",
    "geo_lat": 50.0708719,
    "geo_lon": 43.2401512
  },
  {
    "region_type": "обл",
    "region": "Волгоградская",
    "city": "Николаевск",
    "geo_lat": 50.0165306,
    "geo_lon": 45.4731658
  },
  {
    "region_type": "обл",
    "region": "Волгоградская",
    "city": "Новоаннинский",
    "geo_lat": 50.5296067,
    "geo_lon": 42.6666439
  },
  {
    "region_type": "обл",
    "region": "Волгоградская",
    "city": "Палласовка",
    "geo_lat": 50.0500944,
    "geo_lon": 46.8804277
  },
  {
    "region_type": "обл",
    "region": "Волгоградская",
    "city": "Петров Вал",
    "geo_lat": 50.1380557,
    "geo_lon": 45.20914
  },
  {
    "region_type": "обл",
    "region": "Волгоградская",
    "city": "Серафимович",
    "geo_lat": 49.5663183,
    "geo_lon": 42.7360402
  },
  {
    "region_type": "обл",
    "region": "Волгоградская",
    "city": "Суровикино",
    "geo_lat": 48.618917,
    "geo_lon": 42.8541163
  },
  {
    "region_type": "обл",
    "region": "Волгоградская",
    "city": "Урюпинск",
    "geo_lat": 50.7903789,
    "geo_lon": 42.0288513
  },
  {
    "region_type": "обл",
    "region": "Волгоградская",
    "city": "Фролово",
    "geo_lat": 49.7649148,
    "geo_lon": 43.6648641
  },
  {
    "region_type": "обл",
    "region": "Вологодская",
    "city": "Бабаево",
    "geo_lat": 59.3892583,
    "geo_lon": 35.9377058
  },
  {
    "region_type": "обл",
    "region": "Вологодская",
    "city": "Белозерск",
    "geo_lat": 60.0308381,
    "geo_lon": 37.7890586
  },
  {
    "region_type": "обл",
    "region": "Вологодская",
    "city": "Великий Устюг",
    "geo_lat": 60.7603913,
    "geo_lon": 46.3054414
  },
  {
    "region_type": "обл",
    "region": "Вологодская",
    "city": "Вологда",
    "geo_lat": 59.2483905,
    "geo_lon": 39.8355662
  },
  {
    "region_type": "обл",
    "region": "Вологодская",
    "city": "Вытегра",
    "geo_lat": 61.0063465,
    "geo_lon": 36.4495137
  },
  {
    "region_type": "обл",
    "region": "Вологодская",
    "city": "Грязовец",
    "geo_lat": 58.8757553,
    "geo_lon": 40.2485362
  },
  {
    "region_type": "обл",
    "region": "Вологодская",
    "city": "Кадников",
    "geo_lat": 59.5037764,
    "geo_lon": 40.3441148
  },
  {
    "region_type": "обл",
    "region": "Вологодская",
    "city": "Кириллов",
    "geo_lat": 59.8591523,
    "geo_lon": 38.3748782
  },
  {
    "region_type": "обл",
    "region": "Вологодская",
    "city": "Красавино",
    "geo_lat": 60.9612823,
    "geo_lon": 46.4814116
  },
  {
    "region_type": "обл",
    "region": "Вологодская",
    "city": "Никольск",
    "geo_lat": 59.5351837,
    "geo_lon": 45.4576137
  },
  {
    "region_type": "обл",
    "region": "Вологодская",
    "city": "Сокол",
    "geo_lat": 59.4758605,
    "geo_lon": 40.1114187
  },
  {
    "region_type": "обл",
    "region": "Вологодская",
    "city": "Тотьма",
    "geo_lat": 59.9734998,
    "geo_lon": 42.7589506
  },
  {
    "region_type": "обл",
    "region": "Вологодская",
    "city": "Устюжна",
    "geo_lat": 58.8383117,
    "geo_lon": 36.4425478
  },
  {
    "region_type": "обл",
    "region": "Вологодская",
    "city": "Харовск",
    "geo_lat": 59.9479423,
    "geo_lon": 40.2000298
  },
  {
    "region_type": "обл",
    "region": "Вологодская",
    "city": "Череповец",
    "geo_lat": 59.1269212,
    "geo_lon": 37.9090497
  },
  {
    "region_type": "обл",
    "region": "Воронежская",
    "city": "Бобров",
    "geo_lat": 51.0901649,
    "geo_lon": 40.0318256
  },
  {
    "region_type": "обл",
    "region": "Воронежская",
    "city": "Богучар",
    "geo_lat": 49.9352454,
    "geo_lon": 40.5590801
  },
  {
    "region_type": "обл",
    "region": "Воронежская",
    "city": "Борисоглебск",
    "geo_lat": 51.3655754,
    "geo_lon": 42.1008334
  },
  {
    "region_type": "обл",
    "region": "Воронежская",
    "city": "Бутурлиновка",
    "geo_lat": 50.8311818,
    "geo_lon": 40.5976923
  },
  {
    "region_type": "обл",
    "region": "Воронежская",
    "city": "Воронеж",
    "geo_lat": 51.6593332,
    "geo_lon": 39.1969229
  },
  {
    "region_type": "обл",
    "region": "Воронежская",
    "city": "Калач",
    "geo_lat": 50.4242134,
    "geo_lon": 41.0162014
  },
  {
    "region_type": "обл",
    "region": "Воронежская",
    "city": "Лиски",
    "geo_lat": 50.9945626,
    "geo_lon": 39.5184909
  },
  {
    "region_type": "обл",
    "region": "Воронежская",
    "city": "Нововоронеж",
    "geo_lat": 51.3091524,
    "geo_lon": 39.2162843
  },
  {
    "region_type": "обл",
    "region": "Воронежская",
    "city": "Новохоперск",
    "geo_lat": 51.0952211,
    "geo_lon": 41.6173404
  },
  {
    "region_type": "обл",
    "region": "Воронежская",
    "city": "Острогожск",
    "geo_lat": 50.8677905,
    "geo_lon": 39.0407746
  },
  {
    "region_type": "обл",
    "region": "Воронежская",
    "city": "Павловск",
    "geo_lat": 50.453455,
    "geo_lon": 40.136874
  },
  {
    "region_type": "обл",
    "region": "Воронежская",
    "city": "Поворино",
    "geo_lat": 51.1954419,
    "geo_lon": 42.2472726
  },
  {
    "region_type": "обл",
    "region": "Воронежская",
    "city": "Россошь",
    "geo_lat": 50.1701949,
    "geo_lon": 39.6226965
  },
  {
    "region_type": "обл",
    "region": "Воронежская",
    "city": "Семилуки",
    "geo_lat": 51.6951644,
    "geo_lon": 39.0190454
  },
  {
    "region_type": "обл",
    "region": "Воронежская",
    "city": "Эртиль",
    "geo_lat": 51.830932,
    "geo_lon": 40.8074182
  },
  {
    "region_type": "Респ",
    "region": "Дагестан",
    "city": "Буйнакск",
    "geo_lat": 42.8214424,
    "geo_lon": 47.1165263
  },
  {
    "region_type": "Респ",
    "region": "Дагестан",
    "city": "Дагестанские Огни",
    "geo_lat": 42.1152296,
    "geo_lon": 48.1939354
  },
  {
    "region_type": "Респ",
    "region": "Дагестан",
    "city": "Дербент",
    "geo_lat": 42.058966,
    "geo_lon": 48.2907452
  },
  {
    "region_type": "Респ",
    "region": "Дагестан",
    "city": "Избербаш",
    "geo_lat": 42.5650962,
    "geo_lon": 47.8710051
  },
  {
    "region_type": "Респ",
    "region": "Дагестан",
    "city": "Каспийск",
    "geo_lat": 42.8916007,
    "geo_lon": 47.6367066
  },
  {
    "region_type": "Респ",
    "region": "Дагестан",
    "city": "Кизилюрт",
    "geo_lat": 43.203825,
    "geo_lon": 46.8729636
  },
  {
    "region_type": "Респ",
    "region": "Дагестан",
    "city": "Кизляр",
    "geo_lat": 43.8484083,
    "geo_lon": 46.7233699
  },
  {
    "region_type": "Респ",
    "region": "Дагестан",
    "city": "Махачкала",
    "geo_lat": 42.9849159,
    "geo_lon": 47.5047181
  },
  {
    "region_type": "Респ",
    "region": "Дагестан",
    "city": "Хасавюрт",
    "geo_lat": 43.2504665,
    "geo_lon": 46.5851292
  },
  {
    "region_type": "Респ",
    "region": "Дагестан",
    "city": "Южно-Сухокумск",
    "geo_lat": 44.6602467,
    "geo_lon": 45.6499523
  },
  {
    "region_type": "Аобл",
    "region": "Еврейская",
    "city": "Биробиджан",
    "geo_lat": 48.7946446,
    "geo_lon": 132.9217207
  },
  {
    "region_type": "Аобл",
    "region": "Еврейская",
    "city": "Облучье",
    "geo_lat": 49.0189345,
    "geo_lon": 131.0540102
  },
  {
    "region_type": "край",
    "region": "Забайкальский",
    "city": "Балей",
    "geo_lat": 51.5823759,
    "geo_lon": 116.6379549
  },
  {
    "region_type": "край",
    "region": "Забайкальский",
    "city": "Борзя",
    "geo_lat": 50.3876058,
    "geo_lon": 116.5234779
  },
  {
    "region_type": "край",
    "region": "Забайкальский",
    "city": "Краснокаменск",
    "geo_lat": 50.0929703,
    "geo_lon": 118.0323936
  },
  {
    "region_type": "край",
    "region": "Забайкальский",
    "city": "Могоча",
    "geo_lat": 53.7361398,
    "geo_lon": 119.7660867
  },
  {
    "region_type": "край",
    "region": "Забайкальский",
    "city": "Нерчинск",
    "geo_lat": 51.9594977,
    "geo_lon": 116.5852383
  },
  {
    "region_type": "край",
    "region": "Забайкальский",
    "city": "Петровск-Забайкальский",
    "geo_lat": 51.2748592,
    "geo_lon": 108.846681
  },
  {
    "region_type": "край",
    "region": "Забайкальский",
    "city": "Сретенск",
    "geo_lat": 52.2461454,
    "geo_lon": 117.7117842
  },
  {
    "region_type": "край",
    "region": "Забайкальский",
    "city": "Хилок",
    "geo_lat": 51.3634856,
    "geo_lon": 110.4590898
  },
  {
    "region_type": "край",
    "region": "Забайкальский",
    "city": "Чита",
    "geo_lat": 52.0340142,
    "geo_lon": 113.4994
  },
  {
    "region_type": "край",
    "region": "Забайкальский",
    "city": "Шилка",
    "geo_lat": 51.8497035,
    "geo_lon": 116.0334461
  },
  {
    "region_type": "обл",
    "region": "Ивановская",
    "city": "Вичуга",
    "geo_lat": 57.2044698,
    "geo_lon": 41.9132201
  },
  {
    "region_type": "обл",
    "region": "Ивановская",
    "city": "Гаврилов Посад",
    "geo_lat": 56.5586946,
    "geo_lon": 40.1228906
  },
  {
    "region_type": "обл",
    "region": "Ивановская",
    "city": "Заволжск",
    "geo_lat": 57.4918141,
    "geo_lon": 42.1375625
  },
  {
    "region_type": "обл",
    "region": "Ивановская",
    "city": "Иваново",
    "geo_lat": 56.9993792,
    "geo_lon": 40.9728272
  },
  {
    "region_type": "обл",
    "region": "Ивановская",
    "city": "Кинешма",
    "geo_lat": 57.4425463,
    "geo_lon": 42.168914
  },
  {
    "region_type": "обл",
    "region": "Ивановская",
    "city": "Комсомольск",
    "geo_lat": 57.0273052,
    "geo_lon": 40.3776851
  },
  {
    "region_type": "обл",
    "region": "Ивановская",
    "city": "Кохма",
    "geo_lat": 56.9324606,
    "geo_lon": 41.0931657
  },
  {
    "region_type": "обл",
    "region": "Ивановская",
    "city": "Наволоки",
    "geo_lat": 57.4679066,
    "geo_lon": 41.9608002
  },
  {
    "region_type": "обл",
    "region": "Ивановская",
    "city": "Плес",
    "geo_lat": 57.4606031,
    "geo_lon": 41.5122672
  },
  {
    "region_type": "обл",
    "region": "Ивановская",
    "city": "Приволжск",
    "geo_lat": 57.3805743,
    "geo_lon": 41.2808565
  },
  {
    "region_type": "обл",
    "region": "Ивановская",
    "city": "Пучеж",
    "geo_lat": 56.9820688,
    "geo_lon": 43.1683321
  },
  {
    "region_type": "обл",
    "region": "Ивановская",
    "city": "Родники",
    "geo_lat": 57.1025975,
    "geo_lon": 41.7298834
  },
  {
    "region_type": "обл",
    "region": "Ивановская",
    "city": "Тейково",
    "geo_lat": 56.8542719,
    "geo_lon": 40.5353874
  },
  {
    "region_type": "обл",
    "region": "Ивановская",
    "city": "Фурманов",
    "geo_lat": 57.2539276,
    "geo_lon": 41.1054432
  },
  {
    "region_type": "обл",
    "region": "Ивановская",
    "city": "Шуя",
    "geo_lat": 56.8560234,
    "geo_lon": 41.3800939
  },
  {
    "region_type": "обл",
    "region": "Ивановская",
    "city": "Южа",
    "geo_lat": 56.5926877,
    "geo_lon": 42.0458099
  },
  {
    "region_type": "обл",
    "region": "Ивановская",
    "city": "Юрьевец",
    "geo_lat": 57.3177781,
    "geo_lon": 43.1110401
  },
  {
    "region_type": "Респ",
    "region": "Ингушетия",
    "city": "Карабулак",
    "geo_lat": 43.3055248,
    "geo_lon": 44.9094582
  },
  {
    "region_type": "Респ",
    "region": "Ингушетия",
    "city": "Магас",
    "geo_lat": 43.1688611,
    "geo_lon": 44.8131207
  },
  {
    "region_type": "Респ",
    "region": "Ингушетия",
    "city": "Малгобек",
    "geo_lat": 43.5096646,
    "geo_lon": 44.5901963
  },
  {
    "region_type": "Респ",
    "region": "Ингушетия",
    "city": "Назрань",
    "geo_lat": 43.2257841,
    "geo_lon": 44.7645779
  },
  {
    "region_type": "Респ",
    "region": "Ингушетия",
    "city": "Сунжа",
    "geo_lat": 43.3204196,
    "geo_lon": 45.0476331
  },
  {
    "region_type": "обл",
    "region": "Иркутская",
    "city": "Алзамай",
    "geo_lat": 55.5551233,
    "geo_lon": 98.6643699
  },
  {
    "region_type": "обл",
    "region": "Иркутская",
    "city": "Ангарск",
    "geo_lat": 52.544879,
    "geo_lon": 103.888543
  },
  {
    "region_type": "обл",
    "region": "Иркутская",
    "city": "Байкальск",
    "geo_lat": 51.5230393,
    "geo_lon": 104.1487532
  },
  {
    "region_type": "обл",
    "region": "Иркутская",
    "city": "Бирюсинск",
    "geo_lat": 55.9609167,
    "geo_lon": 97.8205348
  },
  {
    "region_type": "обл",
    "region": "Иркутская",
    "city": "Бодайбо",
    "geo_lat": 57.8468636,
    "geo_lon": 114.1866287
  },
  {
    "region_type": "обл",
    "region": "Иркутская",
    "city": "Братск",
    "geo_lat": 56.1513108,
    "geo_lon": 101.6340035
  },
  {
    "region_type": "обл",
    "region": "Иркутская",
    "city": "Вихоревка",
    "geo_lat": 56.1208145,
    "geo_lon": 101.1702926
  },
  {
    "region_type": "обл",
    "region": "Иркутская",
    "city": "Железногорск-Илимский",
    "geo_lat": 56.5847888,
    "geo_lon": 104.114275
  },
  {
    "region_type": "обл",
    "region": "Иркутская",
    "city": "Зима",
    "geo_lat": 53.920693,
    "geo_lon": 102.0491772
  },
  {
    "region_type": "обл",
    "region": "Иркутская",
    "city": "Иркутск",
    "geo_lat": 52.2864036,
    "geo_lon": 104.2807466
  },
  {
    "region_type": "обл",
    "region": "Иркутская",
    "city": "Киренск",
    "geo_lat": 57.7756595,
    "geo_lon": 108.1109412
  },
  {
    "region_type": "обл",
    "region": "Иркутская",
    "city": "Нижнеудинск",
    "geo_lat": 54.8968931,
    "geo_lon": 99.0314056
  },
  {
    "region_type": "обл",
    "region": "Иркутская",
    "city": "Саянск",
    "geo_lat": 54.1107238,
    "geo_lon": 102.18015
  },
  {
    "region_type": "обл",
    "region": "Иркутская",
    "city": "Свирск",
    "geo_lat": 53.0842668,
    "geo_lon": 103.3364093
  },
  {
    "region_type": "обл",
    "region": "Иркутская",
    "city": "Слюдянка",
    "geo_lat": 51.6563983,
    "geo_lon": 103.7187545
  },
  {
    "region_type": "обл",
    "region": "Иркутская",
    "city": "Тайшет",
    "geo_lat": 55.9405334,
    "geo_lon": 98.0030145
  },
  {
    "region_type": "обл",
    "region": "Иркутская",
    "city": "Тулун",
    "geo_lat": 54.557162,
    "geo_lon": 100.5780603
  },
  {
    "region_type": "обл",
    "region": "Иркутская",
    "city": "Усолье-Сибирское",
    "geo_lat": 52.7565808,
    "geo_lon": 103.6388109
  },
  {
    "region_type": "обл",
    "region": "Иркутская",
    "city": "Усть-Илимск",
    "geo_lat": 57.9430504,
    "geo_lon": 102.7415734
  },
  {
    "region_type": "обл",
    "region": "Иркутская",
    "city": "Усть-Кут",
    "geo_lat": 56.7928178,
    "geo_lon": 105.7757343
  },
  {
    "region_type": "обл",
    "region": "Иркутская",
    "city": "Черемхово",
    "geo_lat": 53.1369095,
    "geo_lon": 103.0901268
  },
  {
    "region_type": "обл",
    "region": "Иркутская",
    "city": "Шелехов",
    "geo_lat": 52.2102538,
    "geo_lon": 104.0973294
  },
  {
    "region_type": "Респ",
    "region": "Кабардино-Балкарская",
    "city": "Баксан",
    "geo_lat": 43.6819137,
    "geo_lon": 43.5345036
  },
  {
    "region_type": "Респ",
    "region": "Кабардино-Балкарская",
    "city": "Майский",
    "geo_lat": 43.6281516,
    "geo_lon": 44.0517314
  },
  {
    "region_type": "Респ",
    "region": "Кабардино-Балкарская",
    "city": "Нальчик",
    "geo_lat": 43.4845464,
    "geo_lon": 43.60713
  },
  {
    "region_type": "Респ",
    "region": "Кабардино-Балкарская",
    "city": "Нарткала",
    "geo_lat": 43.5578075,
    "geo_lon": 43.8575925
  },
  {
    "region_type": "Респ",
    "region": "Кабардино-Балкарская",
    "city": "Прохладный",
    "geo_lat": 43.7589602,
    "geo_lon": 44.0102409
  },
  {
    "region_type": "Респ",
    "region": "Кабардино-Балкарская",
    "city": "Терек",
    "geo_lat": 43.4839358,
    "geo_lon": 44.1402161
  },
  {
    "region_type": "Респ",
    "region": "Кабардино-Балкарская",
    "city": "Тырныауз",
    "geo_lat": 43.3981585,
    "geo_lon": 42.9213582
  },
  {
    "region_type": "Респ",
    "region": "Кабардино-Балкарская",
    "city": "Чегем",
    "geo_lat": 43.5671525,
    "geo_lon": 43.5865792
  },
  {
    "region_type": "обл",
    "region": "Калининградская",
    "city": "Багратионовск",
    "geo_lat": 54.3866518,
    "geo_lon": 20.6418091
  },
  {
    "region_type": "обл",
    "region": "Калининградская",
    "city": "Балтийск",
    "geo_lat": 54.6513372,
    "geo_lon": 19.9140572
  },
  {
    "region_type": "обл",
    "region": "Калининградская",
    "city": "Гвардейск",
    "geo_lat": 54.6588378,
    "geo_lon": 21.0501388
  },
  {
    "region_type": "обл",
    "region": "Калининградская",
    "city": "Гурьевск",
    "geo_lat": 54.770638,
    "geo_lon": 20.6039767
  },
  {
    "region_type": "обл",
    "region": "Калининградская",
    "city": "Гусев",
    "geo_lat": 54.5915455,
    "geo_lon": 22.1942445
  },
  {
    "region_type": "обл",
    "region": "Калининградская",
    "city": "Зеленоградск",
    "geo_lat": 54.9600185,
    "geo_lon": 20.4753652
  },
  {
    "region_type": "обл",
    "region": "Калининградская",
    "city": "Калининград",
    "geo_lat": 54.7074702,
    "geo_lon": 20.5073241
  },
  {
    "region_type": "обл",
    "region": "Калининградская",
    "city": "Краснознаменск",
    "geo_lat": 54.9453423,
    "geo_lon": 22.4928745
  },
  {
    "region_type": "обл",
    "region": "Калининградская",
    "city": "Ладушкин",
    "geo_lat": 54.5692156,
    "geo_lon": 20.1690153
  },
  {
    "region_type": "обл",
    "region": "Калининградская",
    "city": "Мамоново",
    "geo_lat": 54.4646036,
    "geo_lon": 19.9453482
  },
  {
    "region_type": "обл",
    "region": "Калининградская",
    "city": "Неман",
    "geo_lat": 55.0316524,
    "geo_lon": 22.0324064
  },
  {
    "region_type": "обл",
    "region": "Калининградская",
    "city": "Нестеров",
    "geo_lat": 54.6313814,
    "geo_lon": 22.5713736
  },
  {
    "region_type": "обл",
    "region": "Калининградская",
    "city": "Озерск",
    "geo_lat": 54.4084705,
    "geo_lon": 22.0134438
  },
  {
    "region_type": "обл",
    "region": "Калининградская",
    "city": "Пионерский",
    "geo_lat": 54.9516574,
    "geo_lon": 20.2277424
  },
  {
    "region_type": "обл",
    "region": "Калининградская",
    "city": "Полесск",
    "geo_lat": 54.8625126,
    "geo_lon": 21.0998067
  },
  {
    "region_type": "обл",
    "region": "Калининградская",
    "city": "Правдинск",
    "geo_lat": 54.4430986,
    "geo_lon": 21.0085269
  },
  {
    "region_type": "обл",
    "region": "Калининградская",
    "city": "Приморск",
    "geo_lat": 54.7311437,
    "geo_lon": 19.9981926
  },
  {
    "region_type": "обл",
    "region": "Калининградская",
    "city": "Светлогорск",
    "geo_lat": 54.9439286,
    "geo_lon": 20.1514295
  },
  {
    "region_type": "обл",
    "region": "Калининградская",
    "city": "Светлый",
    "geo_lat": 54.6772897,
    "geo_lon": 20.1357595
  },
  {
    "region_type": "обл",
    "region": "Калининградская",
    "city": "Славск",
    "geo_lat": 55.0449714,
    "geo_lon": 21.6742367
  },
  {
    "region_type": "обл",
    "region": "Калининградская",
    "city": "Советск",
    "geo_lat": 55.0809336,
    "geo_lon": 21.8886106
  },
  {
    "region_type": "обл",
    "region": "Калининградская",
    "city": "Черняховск",
    "geo_lat": 54.6244751,
    "geo_lon": 21.7969062
  },
  {
    "region_type": "Респ",
    "region": "Калмыкия",
    "city": "Городовиковск",
    "geo_lat": 46.0875083,
    "geo_lon": 41.935537
  },
  {
    "region_type": "Респ",
    "region": "Калмыкия",
    "city": "Лагань",
    "geo_lat": 45.3930912,
    "geo_lon": 47.3432602
  },
  {
    "region_type": "Респ",
    "region": "Калмыкия",
    "city": "Элиста",
    "geo_lat": 46.3083344,
    "geo_lon": 44.2702088
  },
  {
    "region_type": "обл",
    "region": "Калужская",
    "city": "Балабаново",
    "geo_lat": 55.1773714,
    "geo_lon": 36.6566951
  },
  {
    "region_type": "обл",
    "region": "Калужская",
    "city": "Белоусово",
    "geo_lat": 55.0956803,
    "geo_lon": 36.677629
  },
  {
    "region_type": "обл",
    "region": "Калужская",
    "city": "Боровск",
    "geo_lat": 55.2130096,
    "geo_lon": 36.4926251
  },
  {
    "region_type": "обл",
    "region": "Калужская",
    "city": "Ермолино",
    "geo_lat": 55.1971758,
    "geo_lon": 36.5952722
  },
  {
    "region_type": "обл",
    "region": "Калужская",
    "city": "Жиздра",
    "geo_lat": 53.7521926,
    "geo_lon": 34.7386592
  },
  {
    "region_type": "обл",
    "region": "Калужская",
    "city": "Жуков",
    "geo_lat": 55.0301833,
    "geo_lon": 36.7394903
  },
  {
    "region_type": "обл",
    "region": "Калужская",
    "city": "Калуга",
    "geo_lat": 54.5059848,
    "geo_lon": 36.2516245
  },
  {
    "region_type": "обл",
    "region": "Калужская",
    "city": "Киров",
    "geo_lat": 54.0790111,
    "geo_lon": 34.3076201
  },
  {
    "region_type": "обл",
    "region": "Калужская",
    "city": "Козельск",
    "geo_lat": 54.0347201,
    "geo_lon": 35.780768
  },
  {
    "region_type": "обл",
    "region": "Калужская",
    "city": "Кондрово",
    "geo_lat": 54.7959473,
    "geo_lon": 35.9274842
  },
  {
    "region_type": "обл",
    "region": "Калужская",
    "city": "Кременки",
    "geo_lat": 54.8862447,
    "geo_lon": 37.1168701
  },
  {
    "region_type": "обл",
    "region": "Калужская",
    "city": "Людиново",
    "geo_lat": 53.8700828,
    "geo_lon": 34.4385915
  },
  {
    "region_type": "обл",
    "region": "Калужская",
    "city": "Малоярославец",
    "geo_lat": 55.0177123,
    "geo_lon": 36.4633603
  },
  {
    "region_type": "обл",
    "region": "Калужская",
    "city": "Медынь",
    "geo_lat": 54.9689785,
    "geo_lon": 35.8872168
  },
  {
    "region_type": "обл",
    "region": "Калужская",
    "city": "Мещовск",
    "geo_lat": 54.3191471,
    "geo_lon": 35.2816918
  },
  {
    "region_type": "обл",
    "region": "Калужская",
    "city": "Мосальск",
    "geo_lat": 54.4824939,
    "geo_lon": 34.9872239
  },
  {
    "region_type": "обл",
    "region": "Калужская",
    "city": "Обнинск",
    "geo_lat": 55.0943144,
    "geo_lon": 36.6121639
  },
  {
    "region_type": "обл",
    "region": "Калужская",
    "city": "Сосенский",
    "geo_lat": 54.0566016,
    "geo_lon": 35.9621646
  },
  {
    "region_type": "обл",
    "region": "Калужская",
    "city": "Спас-Деменск",
    "geo_lat": 54.409922,
    "geo_lon": 34.0189631
  },
  {
    "region_type": "обл",
    "region": "Калужская",
    "city": "Сухиничи",
    "geo_lat": 54.097296,
    "geo_lon": 35.3443568
  },
  {
    "region_type": "обл",
    "region": "Калужская",
    "city": "Таруса",
    "geo_lat": 54.7236477,
    "geo_lon": 37.1671
  },
  {
    "region_type": "обл",
    "region": "Калужская",
    "city": "Юхнов",
    "geo_lat": 54.7446445,
    "geo_lon": 35.2424346
  },
  {
    "region_type": "край",
    "region": "Камчатский",
    "city": "Вилючинск",
    "geo_lat": 52.9302415,
    "geo_lon": 158.4057632
  },
  {
    "region_type": "край",
    "region": "Камчатский",
    "city": "Елизово",
    "geo_lat": 53.1830375,
    "geo_lon": 158.3883548
  },
  {
    "region_type": "край",
    "region": "Камчатский",
    "city": "Петропавловск-Камчатский",
    "geo_lat": 53.036908,
    "geo_lon": 158.6559254
  },
  {
    "region_type": "Респ",
    "region": "Карачаево-Черкесская",
    "city": "Карачаевск",
    "geo_lat": 43.7732525,
    "geo_lon": 41.9143472
  },
  {
    "region_type": "Респ",
    "region": "Карачаево-Черкесская",
    "city": "Теберда",
    "geo_lat": 43.4437731,
    "geo_lon": 41.7415142
  },
  {
    "region_type": "Респ",
    "region": "Карачаево-Черкесская",
    "city": "Усть-Джегута",
    "geo_lat": 44.0838442,
    "geo_lon": 41.9711046
  },
  {
    "region_type": "Респ",
    "region": "Карачаево-Черкесская",
    "city": "Черкесск",
    "geo_lat": 44.2269425,
    "geo_lon": 42.0466704
  },
  {
    "region_type": "Респ",
    "region": "Карелия",
    "city": "Беломорск",
    "geo_lat": 64.5378417,
    "geo_lon": 34.7799462
  },
  {
    "region_type": "Респ",
    "region": "Карелия",
    "city": "Кемь",
    "geo_lat": 64.9543539,
    "geo_lon": 34.5949263
  },
  {
    "region_type": "Респ",
    "region": "Карелия",
    "city": "Кондопога",
    "geo_lat": 62.2059817,
    "geo_lon": 34.2682122
  },
  {
    "region_type": "Респ",
    "region": "Карелия",
    "city": "Костомукша",
    "geo_lat": 64.5889398,
    "geo_lon": 30.6016832
  },
  {
    "region_type": "Респ",
    "region": "Карелия",
    "city": "Лахденпохья",
    "geo_lat": 61.518881,
    "geo_lon": 30.1996116
  },
  {
    "region_type": "Респ",
    "region": "Карелия",
    "city": "Медвежьегорск",
    "geo_lat": 62.9127626,
    "geo_lon": 34.4568489
  },
  {
    "region_type": "Респ",
    "region": "Карелия",
    "city": "Олонец",
    "geo_lat": 60.9794025,
    "geo_lon": 32.9725519
  },
  {
    "region_type": "Респ",
    "region": "Карелия",
    "city": "Петрозаводск",
    "geo_lat": 61.7891264,
    "geo_lon": 34.3596434
  },
  {
    "region_type": "Респ",
    "region": "Карелия",
    "city": "Питкяранта",
    "geo_lat": 61.5757191,
    "geo_lon": 31.4640557
  },
  {
    "region_type": "Респ",
    "region": "Карелия",
    "city": "Пудож",
    "geo_lat": 61.8058821,
    "geo_lon": 36.5329941
  },
  {
    "region_type": "Респ",
    "region": "Карелия",
    "city": "Сегежа",
    "geo_lat": 63.7437572,
    "geo_lon": 34.3126982
  },
  {
    "region_type": "Респ",
    "region": "Карелия",
    "city": "Сортавала",
    "geo_lat": 61.703367,
    "geo_lon": 30.6916998
  },
  {
    "region_type": "Респ",
    "region": "Карелия",
    "city": "Суоярви",
    "geo_lat": 62.0787293,
    "geo_lon": 32.3499386
  },
  {
    "region_type": "обл",
    "region": "Кемеровская область - Кузбасс",
    "city": "Анжеро-Судженск",
    "geo_lat": 56.0786281,
    "geo_lon": 86.0201278
  },
  {
    "region_type": "обл",
    "region": "Кемеровская область - Кузбасс",
    "city": "Белово",
    "geo_lat": 54.4220968,
    "geo_lon": 86.3037373
  },
  {
    "region_type": "обл",
    "region": "Кемеровская область - Кузбасс",
    "city": "Березовский",
    "geo_lat": 55.6693513,
    "geo_lon": 86.2744459
  },
  {
    "region_type": "обл",
    "region": "Кемеровская область - Кузбасс",
    "city": "Гурьевск",
    "geo_lat": 54.2859263,
    "geo_lon": 85.9475985
  },
  {
    "region_type": "обл",
    "region": "Кемеровская область - Кузбасс",
    "city": "Калтан",
    "geo_lat": 53.5210919,
    "geo_lon": 87.2771636
  },
  {
    "region_type": "обл",
    "region": "Кемеровская область - Кузбасс",
    "city": "Кемерово",
    "geo_lat": 55.3910651,
    "geo_lon": 86.0467781
  },
  {
    "region_type": "обл",
    "region": "Кемеровская область - Кузбасс",
    "city": "Киселевск",
    "geo_lat": 54.0059999,
    "geo_lon": 86.6366116
  },
  {
    "region_type": "обл",
    "region": "Кемеровская область - Кузбасс",
    "city": "Ленинск-Кузнецкий",
    "geo_lat": 54.6674492,
    "geo_lon": 86.1797324
  },
  {
    "region_type": "обл",
    "region": "Кемеровская область - Кузбасс",
    "city": "Мариинск",
    "geo_lat": 56.2127383,
    "geo_lon": 87.7454924
  },
  {
    "region_type": "обл",
    "region": "Кемеровская область - Кузбасс",
    "city": "Междуреченск",
    "geo_lat": 53.6865289,
    "geo_lon": 88.0702754
  },
  {
    "region_type": "обл",
    "region": "Кемеровская область - Кузбасс",
    "city": "Мыски",
    "geo_lat": 53.7125695,
    "geo_lon": 87.8055646
  },
  {
    "region_type": "обл",
    "region": "Кемеровская область - Кузбасс",
    "city": "Новокузнецк",
    "geo_lat": 53.794315,
    "geo_lon": 87.2142745
  },
  {
    "region_type": "обл",
    "region": "Кемеровская область - Кузбасс",
    "city": "Осинники",
    "geo_lat": 53.5988055,
    "geo_lon": 87.3371272
  },
  {
    "region_type": "обл",
    "region": "Кемеровская область - Кузбасс",
    "city": "Полысаево",
    "geo_lat": 54.6055,
    "geo_lon": 86.2809208
  },
  {
    "region_type": "обл",
    "region": "Кемеровская область - Кузбасс",
    "city": "Прокопьевск",
    "geo_lat": 53.8604265,
    "geo_lon": 86.7183577
  },
  {
    "region_type": "обл",
    "region": "Кемеровская область - Кузбасс",
    "city": "Салаир",
    "geo_lat": 54.2351735,
    "geo_lon": 85.8030733
  },
  {
    "region_type": "обл",
    "region": "Кемеровская область - Кузбасс",
    "city": "Тайга",
    "geo_lat": 56.0622131,
    "geo_lon": 85.6207182
  },
  {
    "region_type": "обл",
    "region": "Кемеровская область - Кузбасс",
    "city": "Таштагол",
    "geo_lat": 52.759313,
    "geo_lon": 87.8476546
  },
  {
    "region_type": "обл",
    "region": "Кемеровская область - Кузбасс",
    "city": "Топки",
    "geo_lat": 55.2764707,
    "geo_lon": 85.6152619
  },
  {
    "region_type": "обл",
    "region": "Кемеровская область - Кузбасс",
    "city": "Юрга",
    "geo_lat": 55.7202694,
    "geo_lon": 84.8886399
  },
  {
    "region_type": "обл",
    "region": "Кировская",
    "city": "Белая Холуница",
    "geo_lat": 58.8415239,
    "geo_lon": 50.8460699
  },
  {
    "region_type": "обл",
    "region": "Кировская",
    "city": "Вятские Поляны",
    "geo_lat": 56.2284817,
    "geo_lon": 51.0614855
  },
  {
    "region_type": "обл",
    "region": "Кировская",
    "city": "Зуевка",
    "geo_lat": 58.4032152,
    "geo_lon": 51.1331606
  },
  {
    "region_type": "обл",
    "region": "Кировская",
    "city": "Киров",
    "geo_lat": 58.6035264,
    "geo_lon": 49.6679304
  },
  {
    "region_type": "обл",
    "region": "Кировская",
    "city": "Кирово-Чепецк",
    "geo_lat": 58.5559424,
    "geo_lon": 50.0316848
  },
  {
    "region_type": "обл",
    "region": "Кировская",
    "city": "Кирс",
    "geo_lat": 59.340056,
    "geo_lon": 52.2414437
  },
  {
    "region_type": "обл",
    "region": "Кировская",
    "city": "Котельнич",
    "geo_lat": 58.3034832,
    "geo_lon": 48.3475597
  },
  {
    "region_type": "обл",
    "region": "Кировская",
    "city": "Луза",
    "geo_lat": 60.6290609,
    "geo_lon": 47.2612445
  },
  {
    "region_type": "обл",
    "region": "Кировская",
    "city": "Малмыж",
    "geo_lat": 56.5243844,
    "geo_lon": 50.6782739
  },
  {
    "region_type": "обл",
    "region": "Кировская",
    "city": "Мураши",
    "geo_lat": 59.3955383,
    "geo_lon": 48.9638417
  },
  {
    "region_type": "обл",
    "region": "Кировская",
    "city": "Нолинск",
    "geo_lat": 57.5597284,
    "geo_lon": 49.93575
  },
  {
    "region_type": "обл",
    "region": "Кировская",
    "city": "Омутнинск",
    "geo_lat": 58.6698913,
    "geo_lon": 52.1894564
  },
  {
    "region_type": "обл",
    "region": "Кировская",
    "city": "Орлов",
    "geo_lat": 58.5389776,
    "geo_lon": 48.8927723
  },
  {
    "region_type": "обл",
    "region": "Кировская",
    "city": "Слободской",
    "geo_lat": 58.7311574,
    "geo_lon": 50.1669249
  },
  {
    "region_type": "обл",
    "region": "Кировская",
    "city": "Советск",
    "geo_lat": 57.584196,
    "geo_lon": 48.9590272
  },
  {
    "region_type": "обл",
    "region": "Кировская",
    "city": "Сосновка",
    "geo_lat": 56.2532741,
    "geo_lon": 51.2833642
  },
  {
    "region_type": "обл",
    "region": "Кировская",
    "city": "Уржум",
    "geo_lat": 57.1097477,
    "geo_lon": 50.0058097
  },
  {
    "region_type": "обл",
    "region": "Кировская",
    "city": "Яранск",
    "geo_lat": 57.3040326,
    "geo_lon": 47.8478737
  },
  {
    "region_type": "Респ",
    "region": "Коми",
    "city": "Воркута",
    "geo_lat": 67.4974082,
    "geo_lon": 64.061034
  },
  {
    "region_type": "Респ",
    "region": "Коми",
    "city": "Вуктыл",
    "geo_lat": 63.8615274,
    "geo_lon": 57.3165402
  },
  {
    "region_type": "Респ",
    "region": "Коми",
    "city": "Емва",
    "geo_lat": 62.5965137,
    "geo_lon": 50.8732125
  },
  {
    "region_type": "Респ",
    "region": "Коми",
    "city": "Инта",
    "geo_lat": 66.0367316,
    "geo_lon": 60.1152961
  },
  {
    "region_type": "Респ",
    "region": "Коми",
    "city": "Микунь",
    "geo_lat": 62.3579068,
    "geo_lon": 50.0719503
  },
  {
    "region_type": "Респ",
    "region": "Коми",
    "city": "Печора",
    "geo_lat": 65.148584,
    "geo_lon": 57.2239777
  },
  {
    "region_type": "Респ",
    "region": "Коми",
    "city": "Сосногорск",
    "geo_lat": 63.5989841,
    "geo_lon": 53.876293
  },
  {
    "region_type": "Респ",
    "region": "Коми",
    "city": "Сыктывкар",
    "geo_lat": 61.6686617,
    "geo_lon": 50.8358151
  },
  {
    "region_type": "Респ",
    "region": "Коми",
    "city": "Усинск",
    "geo_lat": 65.994147,
    "geo_lon": 57.5569423
  },
  {
    "region_type": "Респ",
    "region": "Коми",
    "city": "Ухта",
    "geo_lat": 63.5565514,
    "geo_lon": 53.7014239
  },
  {
    "region_type": "обл",
    "region": "Костромская",
    "city": "Буй",
    "geo_lat": 58.4733277,
    "geo_lon": 41.5306822
  },
  {
    "region_type": "обл",
    "region": "Костромская",
    "city": "Волгореченск",
    "geo_lat": 57.4424559,
    "geo_lon": 41.1594201
  },
  {
    "region_type": "обл",
    "region": "Костромская",
    "city": "Галич",
    "geo_lat": 58.3828191,
    "geo_lon": 42.3654013
  },
  {
    "region_type": "обл",
    "region": "Костромская",
    "city": "Кологрив",
    "geo_lat": 58.8269323,
    "geo_lon": 44.3184927
  },
  {
    "region_type": "обл",
    "region": "Костромская",
    "city": "Кострома",
    "geo_lat": 57.8029621,
    "geo_lon": 40.9908264
  },
  {
    "region_type": "обл",
    "region": "Костромская",
    "city": "Макарьев",
    "geo_lat": 57.8807152,
    "geo_lon": 43.8014197
  },
  {
    "region_type": "обл",
    "region": "Костромская",
    "city": "Мантурово",
    "geo_lat": 58.3265441,
    "geo_lon": 44.757494
  },
  {
    "region_type": "обл",
    "region": "Костромская",
    "city": "Нерехта",
    "geo_lat": 57.4543369,
    "geo_lon": 40.5723598
  },
  {
    "region_type": "обл",
    "region": "Костромская",
    "city": "Нея",
    "geo_lat": 58.2943349,
    "geo_lon": 43.8780948
  },
  {
    "region_type": "обл",
    "region": "Костромская",
    "city": "Солигалич",
    "geo_lat": 59.0784867,
    "geo_lon": 42.2878423
  },
  {
    "region_type": "обл",
    "region": "Костромская",
    "city": "Чухлома",
    "geo_lat": 58.753421,
    "geo_lon": 42.6884958
  },
  {
    "region_type": "обл",
    "region": "Костромская",
    "city": "Шарья",
    "geo_lat": 58.3760542,
    "geo_lon": 45.4062414
  },
  {
    "region_type": "край",
    "region": "Краснодарский",
    "city": "Абинск",
    "geo_lat": 44.8679655,
    "geo_lon": 38.1618157
  },
  {
    "region_type": "край",
    "region": "Краснодарский",
    "city": "Анапа",
    "geo_lat": 44.8950433,
    "geo_lon": 37.3163282
  },
  {
    "region_type": "край",
    "region": "Краснодарский",
    "city": "Апшеронск",
    "geo_lat": 44.4584006,
    "geo_lon": 39.7299824
  },
  {
    "region_type": "край",
    "region": "Краснодарский",
    "city": "Армавир",
    "geo_lat": 45.0012149,
    "geo_lon": 41.1324168
  },
  {
    "region_type": "край",
    "region": "Краснодарский",
    "city": "Белореченск",
    "geo_lat": 44.7651876,
    "geo_lon": 39.8781494
  },
  {
    "region_type": "край",
    "region": "Краснодарский",
    "city": "Геленджик",
    "geo_lat": 44.5630007,
    "geo_lon": 38.0790852
  },
  {
    "region_type": "край",
    "region": "Краснодарский",
    "city": "Горячий Ключ",
    "geo_lat": 44.6344864,
    "geo_lon": 39.1354738
  },
  {
    "region_type": "край",
    "region": "Краснодарский",
    "city": "Гулькевичи",
    "geo_lat": 45.3605121,
    "geo_lon": 40.6918389
  },
  {
    "region_type": "край",
    "region": "Краснодарский",
    "city": "Ейск",
    "geo_lat": 46.71157,
    "geo_lon": 38.2763895
  },
  {
    "region_type": "край",
    "region": "Краснодарский",
    "city": "Кореновск",
    "geo_lat": 45.4641703,
    "geo_lon": 39.458949
  },
  {
    "region_type": "край",
    "region": "Краснодарский",
    "city": "Краснодар",
    "geo_lat": 45.0401604,
    "geo_lon": 38.9759647
  },
  {
    "region_type": "край",
    "region": "Краснодарский",
    "city": "Кропоткин",
    "geo_lat": 45.4333007,
    "geo_lon": 40.5727951
  },
  {
    "region_type": "край",
    "region": "Краснодарский",
    "city": "Крымск",
    "geo_lat": 44.9344404,
    "geo_lon": 37.9855795
  },
  {
    "region_type": "край",
    "region": "Краснодарский",
    "city": "Курганинск",
    "geo_lat": 44.8877025,
    "geo_lon": 40.5913245
  },
  {
    "region_type": "край",
    "region": "Краснодарский",
    "city": "Лабинск",
    "geo_lat": 44.6354363,
    "geo_lon": 40.7245341
  },
  {
    "region_type": "край",
    "region": "Краснодарский",
    "city": "Новокубанск",
    "geo_lat": 45.1038699,
    "geo_lon": 41.0475175
  },
  {
    "region_type": "край",
    "region": "Краснодарский",
    "city": "Новороссийск",
    "geo_lat": 44.7235026,
    "geo_lon": 37.7686135
  },
  {
    "region_type": "край",
    "region": "Краснодарский",
    "city": "Приморско-Ахтарск",
    "geo_lat": 46.0515432,
    "geo_lon": 38.1704875
  },
  {
    "region_type": "край",
    "region": "Краснодарский",
    "city": "Славянск-на-Кубани",
    "geo_lat": 45.2603626,
    "geo_lon": 38.1259774
  },
  {
    "region_type": "край",
    "region": "Краснодарский",
    "city": "Сочи",
    "geo_lat": 43.5854551,
    "geo_lon": 39.7231548
  },
  {
    "region_type": "край",
    "region": "Краснодарский",
    "city": "Темрюк",
    "geo_lat": 45.2610949,
    "geo_lon": 37.4454412
  },
  {
    "region_type": "край",
    "region": "Краснодарский",
    "city": "Тимашевск",
    "geo_lat": 45.615923,
    "geo_lon": 38.9351837
  },
  {
    "region_type": "край",
    "region": "Краснодарский",
    "city": "Тихорецк",
    "geo_lat": 45.8546345,
    "geo_lon": 40.1260267
  },
  {
    "region_type": "край",
    "region": "Краснодарский",
    "city": "Туапсе",
    "geo_lat": 44.1105335,
    "geo_lon": 39.0824904
  },
  {
    "region_type": "край",
    "region": "Краснодарский",
    "city": "Усть-Лабинск",
    "geo_lat": 45.2227359,
    "geo_lon": 39.6929577
  },
  {
    "region_type": "край",
    "region": "Краснодарский",
    "city": "Хадыженск",
    "geo_lat": 44.4122963,
    "geo_lon": 39.5320258
  },
  {
    "region_type": "край",
    "region": "Красноярский",
    "city": "Артемовск",
    "geo_lat": 54.3473075,
    "geo_lon": 93.4358377
  },
  {
    "region_type": "край",
    "region": "Красноярский",
    "city": "Ачинск",
    "geo_lat": 56.253907,
    "geo_lon": 90.4794397
  },
  {
    "region_type": "край",
    "region": "Красноярский",
    "city": "Боготол",
    "geo_lat": 56.2098468,
    "geo_lon": 89.5299336
  },
  {
    "region_type": "край",
    "region": "Красноярский",
    "city": "Бородино",
    "geo_lat": 55.9054121,
    "geo_lon": 94.9020967
  },
  {
    "region_type": "край",
    "region": "Красноярский",
    "city": "Дивногорск",
    "geo_lat": 55.9576784,
    "geo_lon": 92.3800687
  },
  {
    "region_type": "край",
    "region": "Красноярский",
    "city": "Дудинка",
    "geo_lat": 69.4031364,
    "geo_lon": 86.1907218
  },
  {
    "region_type": "край",
    "region": "Красноярский",
    "city": "Енисейск",
    "geo_lat": 58.4485261,
    "geo_lon": 92.1651083
  },
  {
    "region_type": "край",
    "region": "Красноярский",
    "city": "Железногорск",
    "geo_lat": 56.2529035,
    "geo_lon": 93.532273
  },
  {
    "region_type": "край",
    "region": "Красноярский",
    "city": "Заозерный",
    "geo_lat": 55.9617752,
    "geo_lon": 94.7091491
  },
  {
    "region_type": "край",
    "region": "Красноярский",
    "city": "Зеленогорск",
    "geo_lat": 56.1131564,
    "geo_lon": 94.5888103
  },
  {
    "region_type": "край",
    "region": "Красноярский",
    "city": "Игарка",
    "geo_lat": 67.4666901,
    "geo_lon": 86.5812794
  },
  {
    "region_type": "край",
    "region": "Красноярский",
    "city": "Иланский",
    "geo_lat": 56.2374037,
    "geo_lon": 96.067267
  },
  {
    "region_type": "край",
    "region": "Красноярский",
    "city": "Канск",
    "geo_lat": 56.2051282,
    "geo_lon": 95.7051096
  },
  {
    "region_type": "край",
    "region": "Красноярский",
    "city": "Кодинск",
    "geo_lat": 58.6032644,
    "geo_lon": 99.1797962
  },
  {
    "region_type": "край",
    "region": "Красноярский",
    "city": "Красноярск",
    "geo_lat": 56.0093879,
    "geo_lon": 92.8524806
  },
  {
    "region_type": "край",
    "region": "Красноярский",
    "city": "Лесосибирск",
    "geo_lat": 58.221681,
    "geo_lon": 92.5037872
  },
  {
    "region_type": "край",
    "region": "Красноярский",
    "city": "Минусинск",
    "geo_lat": 53.7104586,
    "geo_lon": 91.6872907
  },
  {
    "region_type": "край",
    "region": "Красноярский",
    "city": "Назарово",
    "geo_lat": 56.0113799,
    "geo_lon": 90.4168775
  },
  {
    "region_type": "край",
    "region": "Красноярский",
    "city": "Норильск",
    "geo_lat": 69.3489978,
    "geo_lon": 88.2009846
  },
  {
    "region_type": "край",
    "region": "Красноярский",
    "city": "Сосновоборск",
    "geo_lat": 56.1202647,
    "geo_lon": 93.3354121
  },
  {
    "region_type": "край",
    "region": "Красноярский",
    "city": "Ужур",
    "geo_lat": 55.3141969,
    "geo_lon": 89.8333918
  },
  {
    "region_type": "край",
    "region": "Красноярский",
    "city": "Уяр",
    "geo_lat": 55.8131263,
    "geo_lon": 94.3282601
  },
  {
    "region_type": "край",
    "region": "Красноярский",
    "city": "Шарыпово",
    "geo_lat": 55.5389739,
    "geo_lon": 89.1801044
  },
  {
    "region_type": "Респ",
    "region": "Крым",
    "city": "Алушта",
    "geo_lat": 44.6764304,
    "geo_lon": 34.4100624
  },
  {
    "region_type": "Респ",
    "region": "Крым",
    "city": "Армянск",
    "geo_lat": 46.1059307,
    "geo_lon": 33.6910012
  },
  {
    "region_type": "Респ",
    "region": "Крым",
    "city": "Бахчисарай",
    "geo_lat": 44.7514769,
    "geo_lon": 33.8752176
  },
  {
    "region_type": "Респ",
    "region": "Крым",
    "city": "Белогорск",
    "geo_lat": 45.057202,
    "geo_lon": 34.5999029
  },
  {
    "region_type": "Респ",
    "region": "Крым",
    "city": "Джанкой",
    "geo_lat": 45.7092306,
    "geo_lon": 34.3883372
  },
  {
    "region_type": "Респ",
    "region": "Крым",
    "city": "Евпатория",
    "geo_lat": 45.190629,
    "geo_lon": 33.367634
  },
  {
    "region_type": "Респ",
    "region": "Крым",
    "city": "Керчь",
    "geo_lat": 45.3562627,
    "geo_lon": 36.4674513
  },
  {
    "region_type": "Респ",
    "region": "Крым",
    "city": "Красноперекопск",
    "geo_lat": 45.9537576,
    "geo_lon": 33.7921939
  },
  {
    "region_type": "Респ",
    "region": "Крым",
    "city": "Саки",
    "geo_lat": 45.1341997,
    "geo_lon": 33.6033383
  },
  {
    "region_type": "Респ",
    "region": "Крым",
    "city": "Симферополь",
    "geo_lat": 44.9482948,
    "geo_lon": 34.1001151
  },
  {
    "region_type": "Респ",
    "region": "Крым",
    "city": "Старый Крым",
    "geo_lat": 45.029058,
    "geo_lon": 35.0901474
  },
  {
    "region_type": "Респ",
    "region": "Крым",
    "city": "Судак",
    "geo_lat": 44.8504679,
    "geo_lon": 34.9762034
  },
  {
    "region_type": "Респ",
    "region": "Крым",
    "city": "Феодосия",
    "geo_lat": 45.0318393,
    "geo_lon": 35.3824259
  },
  {
    "region_type": "Респ",
    "region": "Крым",
    "city": "Щелкино",
    "geo_lat": 45.4288991,
    "geo_lon": 35.825165
  },
  {
    "region_type": "Респ",
    "region": "Крым",
    "city": "Ялта",
    "geo_lat": 44.4953612,
    "geo_lon": 34.166308
  },
  {
    "region_type": "обл",
    "region": "Курганская",
    "city": "Далматово",
    "geo_lat": 56.262114,
    "geo_lon": 62.9387011
  },
  {
    "region_type": "обл",
    "region": "Курганская",
    "city": "Катайск",
    "geo_lat": 56.290809,
    "geo_lon": 62.5800359
  },
  {
    "region_type": "обл",
    "region": "Курганская",
    "city": "Курган",
    "geo_lat": 55.4443883,
    "geo_lon": 65.3161963
  },
  {
    "region_type": "обл",
    "region": "Курганская",
    "city": "Куртамыш",
    "geo_lat": 54.9368539,
    "geo_lon": 64.4203722
  },
  {
    "region_type": "обл",
    "region": "Курганская",
    "city": "Макушино",
    "geo_lat": 55.2153947,
    "geo_lon": 67.2451705
  },
  {
    "region_type": "обл",
    "region": "Курганская",
    "city": "Петухово",
    "geo_lat": 55.0650077,
    "geo_lon": 67.8873408
  },
  {
    "region_type": "обл",
    "region": "Курганская",
    "city": "Шадринск",
    "geo_lat": 56.0870344,
    "geo_lon": 63.6297182
  },
  {
    "region_type": "обл",
    "region": "Курганская",
    "city": "Шумиха",
    "geo_lat": 55.2280246,
    "geo_lon": 63.2901272
  },
  {
    "region_type": "обл",
    "region": "Курганская",
    "city": "Щучье",
    "geo_lat": 55.2087637,
    "geo_lon": 62.7478548
  },
  {
    "region_type": "обл",
    "region": "Курская",
    "city": "Дмитриев",
    "geo_lat": 52.1268464,
    "geo_lon": 35.0739038
  },
  {
    "region_type": "обл",
    "region": "Курская",
    "city": "Железногорск",
    "geo_lat": 52.3380202,
    "geo_lon": 35.3516867
  },
  {
    "region_type": "обл",
    "region": "Курская",
    "city": "Курск",
    "geo_lat": 51.7303637,
    "geo_lon": 36.1925603
  },
  {
    "region_type": "обл",
    "region": "Курская",
    "city": "Курчатов",
    "geo_lat": 51.6604083,
    "geo_lon": 35.6572224
  },
  {
    "region_type": "обл",
    "region": "Курская",
    "city": "Льгов",
    "geo_lat": 51.6597148,
    "geo_lon": 35.2612491
  },
  {
    "region_type": "обл",
    "region": "Курская",
    "city": "Обоянь",
    "geo_lat": 51.2119324,
    "geo_lon": 36.2755133
  },
  {
    "region_type": "обл",
    "region": "Курская",
    "city": "Рыльск",
    "geo_lat": 51.5681314,
    "geo_lon": 34.6802597
  },
  {
    "region_type": "обл",
    "region": "Курская",
    "city": "Суджа",
    "geo_lat": 51.1918927,
    "geo_lon": 35.2720915
  },
  {
    "region_type": "обл",
    "region": "Курская",
    "city": "Фатеж",
    "geo_lat": 52.0917728,
    "geo_lon": 35.8538706
  },
  {
    "region_type": "обл",
    "region": "Курская",
    "city": "Щигры",
    "geo_lat": 51.8786014,
    "geo_lon": 36.8910945
  },
  {
    "region_type": "обл",
    "region": "Ленинградская",
    "city": "Бокситогорск",
    "geo_lat": 59.4734797,
    "geo_lon": 33.845688
  },
  {
    "region_type": "обл",
    "region": "Ленинградская",
    "city": "Волосово",
    "geo_lat": 59.4445408,
    "geo_lon": 29.4923355
  },
  {
    "region_type": "обл",
    "region": "Ленинградская",
    "city": "Волхов",
    "geo_lat": 59.9005958,
    "geo_lon": 32.3520756
  },
  {
    "region_type": "обл",
    "region": "Ленинградская",
    "city": "Всеволожск",
    "geo_lat": 60.0191278,
    "geo_lon": 30.6456718
  },
  {
    "region_type": "обл",
    "region": "Ленинградская",
    "city": "Выборг",
    "geo_lat": 60.7130801,
    "geo_lon": 28.7328336
  },
  {
    "region_type": "обл",
    "region": "Ленинградская",
    "city": "Высоцк",
    "geo_lat": 60.6296236,
    "geo_lon": 28.5709314
  },
  {
    "region_type": "обл",
    "region": "Ленинградская",
    "city": "Гатчина",
    "geo_lat": 59.565237,
    "geo_lon": 30.1282473
  },
  {
    "region_type": "обл",
    "region": "Ленинградская",
    "city": "Ивангород",
    "geo_lat": 59.3766119,
    "geo_lon": 28.2231659
  },
  {
    "region_type": "обл",
    "region": "Ленинградская",
    "city": "Каменногорск",
    "geo_lat": 60.950855,
    "geo_lon": 29.1308372
  },
  {
    "region_type": "обл",
    "region": "Ленинградская",
    "city": "Кингисепп",
    "geo_lat": 59.3740435,
    "geo_lon": 28.6112444
  },
  {
    "region_type": "обл",
    "region": "Ленинградская",
    "city": "Кириши",
    "geo_lat": 59.4742862,
    "geo_lon": 32.0624947
  },
  {
    "region_type": "обл",
    "region": "Ленинградская",
    "city": "Кировск",
    "geo_lat": 59.8754216,
    "geo_lon": 30.981364
  },
  {
    "region_type": "обл",
    "region": "Ленинградская",
    "city": "Коммунар",
    "geo_lat": 59.6215133,
    "geo_lon": 30.3934125
  },
  {
    "region_type": "обл",
    "region": "Ленинградская",
    "city": "Кудрово",
    "geo_lat": 59.9075226,
    "geo_lon": 30.5121008
  },
  {
    "region_type": "обл",
    "region": "Ленинградская",
    "city": "Лодейное Поле",
    "geo_lat": 60.7320936,
    "geo_lon": 33.5521022
  },
  {
    "region_type": "обл",
    "region": "Ленинградская",
    "city": "Луга",
    "geo_lat": 58.7374031,
    "geo_lon": 29.8465776
  },
  {
    "region_type": "обл",
    "region": "Ленинградская",
    "city": "Любань",
    "geo_lat": 59.3493847,
    "geo_lon": 31.2484801
  },
  {
    "region_type": "обл",
    "region": "Ленинградская",
    "city": "Мурино",
    "geo_lat": 60.044862,
    "geo_lon": 30.4571456
  },
  {
    "region_type": "обл",
    "region": "Ленинградская",
    "city": "Никольское",
    "geo_lat": 59.7043309,
    "geo_lon": 30.7874571
  },
  {
    "region_type": "обл",
    "region": "Ленинградская",
    "city": "Новая Ладога",
    "geo_lat": 60.1100135,
    "geo_lon": 32.3141203
  },
  {
    "region_type": "обл",
    "region": "Ленинградская",
    "city": "Отрадное",
    "geo_lat": 59.7726848,
    "geo_lon": 30.7988557
  },
  {
    "region_type": "обл",
    "region": "Ленинградская",
    "city": "Пикалево",
    "geo_lat": 59.5132022,
    "geo_lon": 34.1772776
  },
  {
    "region_type": "обл",
    "region": "Ленинградская",
    "city": "Подпорожье",
    "geo_lat": 60.9127549,
    "geo_lon": 34.1567664
  },
  {
    "region_type": "обл",
    "region": "Ленинградская",
    "city": "Приморск",
    "geo_lat": 60.3660209,
    "geo_lon": 28.6135772
  },
  {
    "region_type": "обл",
    "region": "Ленинградская",
    "city": "Приозерск",
    "geo_lat": 61.0330896,
    "geo_lon": 30.1587851
  },
  {
    "region_type": "обл",
    "region": "Ленинградская",
    "city": "Светогорск",
    "geo_lat": 61.1111282,
    "geo_lon": 28.8725865
  },
  {
    "region_type": "обл",
    "region": "Ленинградская",
    "city": "Сертолово",
    "geo_lat": 60.1446932,
    "geo_lon": 30.2095918
  },
  {
    "region_type": "обл",
    "region": "Ленинградская",
    "city": "Сланцы",
    "geo_lat": 59.1178185,
    "geo_lon": 28.0881475
  },
  {
    "region_type": "обл",
    "region": "Ленинградская",
    "city": "Сосновый Бор",
    "geo_lat": 59.8772884,
    "geo_lon": 29.1291619
  },
  {
    "region_type": "обл",
    "region": "Ленинградская",
    "city": "Сясьстрой",
    "geo_lat": 60.1401739,
    "geo_lon": 32.5601559
  },
  {
    "region_type": "обл",
    "region": "Ленинградская",
    "city": "Тихвин",
    "geo_lat": 59.6272904,
    "geo_lon": 33.5072731
  },
  {
    "region_type": "обл",
    "region": "Ленинградская",
    "city": "Тосно",
    "geo_lat": 59.5407098,
    "geo_lon": 30.877812
  },
  {
    "region_type": "обл",
    "region": "Ленинградская",
    "city": "Шлиссельбург",
    "geo_lat": 59.9443714,
    "geo_lon": 31.0333365
  },
  {
    "region_type": "обл",
    "region": "Липецкая",
    "city": "Грязи",
    "geo_lat": 52.4874097,
    "geo_lon": 39.9331142
  },
  {
    "region_type": "обл",
    "region": "Липецкая",
    "city": "Данков",
    "geo_lat": 53.2577411,
    "geo_lon": 39.1456184
  },
  {
    "region_type": "обл",
    "region": "Липецкая",
    "city": "Елец",
    "geo_lat": 52.6152411,
    "geo_lon": 38.5289342
  },
  {
    "region_type": "обл",
    "region": "Липецкая",
    "city": "Задонск",
    "geo_lat": 52.4004179,
    "geo_lon": 38.9205032
  },
  {
    "region_type": "обл",
    "region": "Липецкая",
    "city": "Лебедянь",
    "geo_lat": 53.0156117,
    "geo_lon": 39.143536
  },
  {
    "region_type": "обл",
    "region": "Липецкая",
    "city": "Липецк",
    "geo_lat": 52.610249,
    "geo_lon": 39.5947883
  },
  {
    "region_type": "обл",
    "region": "Липецкая",
    "city": "Усмань",
    "geo_lat": 52.0442648,
    "geo_lon": 39.726401
  },
  {
    "region_type": "обл",
    "region": "Липецкая",
    "city": "Чаплыгин",
    "geo_lat": 53.24048,
    "geo_lon": 39.9670973
  },
  {
    "region_type": "обл",
    "region": "Магаданская",
    "city": "Магадан",
    "geo_lat": 59.5681332,
    "geo_lon": 150.8084956
  },
  {
    "region_type": "обл",
    "region": "Магаданская",
    "city": "Сусуман",
    "geo_lat": 62.7805882,
    "geo_lon": 148.1540281
  },
  {
    "region_type": "Респ",
    "region": "Марий Эл",
    "city": "Волжск",
    "geo_lat": 55.8623156,
    "geo_lon": 48.3715083
  },
  {
    "region_type": "Респ",
    "region": "Марий Эл",
    "city": "Звенигово",
    "geo_lat": 55.9738571,
    "geo_lon": 48.0170245
  },
  {
    "region_type": "Респ",
    "region": "Марий Эл",
    "city": "Йошкар-Ола",
    "geo_lat": 56.6343662,
    "geo_lon": 47.8999706
  },
  {
    "region_type": "Респ",
    "region": "Марий Эл",
    "city": "Козьмодемьянск",
    "geo_lat": 56.3334036,
    "geo_lon": 46.546675
  },
  {
    "region_type": "Респ",
    "region": "Мордовия",
    "city": "Ардатов",
    "geo_lat": 54.8465544,
    "geo_lon": 46.2411232
  },
  {
    "region_type": "Респ",
    "region": "Мордовия",
    "city": "Инсар",
    "geo_lat": 53.8770022,
    "geo_lon": 44.3696566
  },
  {
    "region_type": "Респ",
    "region": "Мордовия",
    "city": "Ковылкино",
    "geo_lat": 54.0391072,
    "geo_lon": 43.9191539
  },
  {
    "region_type": "Респ",
    "region": "Мордовия",
    "city": "Краснослободск",
    "geo_lat": 54.4248207,
    "geo_lon": 43.7845011
  },
  {
    "region_type": "Респ",
    "region": "Мордовия",
    "city": "Рузаевка",
    "geo_lat": 54.0581967,
    "geo_lon": 44.9490466
  },
  {
    "region_type": "Респ",
    "region": "Мордовия",
    "city": "Саранск",
    "geo_lat": 54.1809332,
    "geo_lon": 45.1862632
  },
  {
    "region_type": "Респ",
    "region": "Мордовия",
    "city": "Темников",
    "geo_lat": 54.6310583,
    "geo_lon": 43.2161099
  },
  {
    "region_type": "г",
    "region": "Москва",
    "city": "Москва",
    "geo_lat": 55.7540471,
    "geo_lon": 37.620405
  },
  {
    "region_type": "обл",
    "region": "Московская",
    "city": "Апрелевка",
    "geo_lat": 55.5276918,
    "geo_lon": 37.065143
  },
  {
    "region_type": "обл",
    "region": "Московская",
    "city": "Балашиха",
    "geo_lat": 55.796389,
    "geo_lon": 37.938283
  },
  {
    "region_type": "обл",
    "region": "Московская",
    "city": "Белоозерский",
    "geo_lat": 55.4595766,
    "geo_lon": 38.4389742
  },
  {
    "region_type": "обл",
    "region": "Московская",
    "city": "Бронницы",
    "geo_lat": 55.4255379,
    "geo_lon": 38.264145
  },
  {
    "region_type": "обл",
    "region": "Московская",
    "city": "Верея",
    "geo_lat": 55.3673997,
    "geo_lon": 36.1563454
  },
  {
    "region_type": "обл",
    "region": "Московская",
    "city": "Видное",
    "geo_lat": 55.551725,
    "geo_lon": 37.7061984
  },
  {
    "region_type": "обл",
    "region": "Московская",
    "city": "Волоколамск",
    "geo_lat": 56.0356499,
    "geo_lon": 35.9585112
  },
  {
    "region_type": "обл",
    "region": "Московская",
    "city": "Воскресенск",
    "geo_lat": 55.3071519,
    "geo_lon": 38.7027953
  },
  {
    "region_type": "обл",
    "region": "Московская",
    "city": "Высоковск",
    "geo_lat": 56.3359513,
    "geo_lon": 36.5251837
  },
  {
    "region_type": "обл",
    "region": "Московская",
    "city": "Голицыно",
    "geo_lat": 55.6190582,
    "geo_lon": 36.9856793
  },
  {
    "region_type": "обл",
    "region": "Московская",
    "city": "Дедовск",
    "geo_lat": 55.8703276,
    "geo_lon": 37.1245043
  },
  {
    "region_type": "обл",
    "region": "Московская",
    "city": "Дзержинский",
    "geo_lat": 55.6240869,
    "geo_lon": 37.8440276
  },
  {
    "region_type": "обл",
    "region": "Московская",
    "city": "Дмитров",
    "geo_lat": 56.3477457,
    "geo_lon": 37.526672
  },
  {
    "region_type": "обл",
    "region": "Московская",
    "city": "Долгопрудный",
    "geo_lat": 55.9385999,
    "geo_lon": 37.5101021
  },
  {
    "region_type": "обл",
    "region": "Московская",
    "city": "Домодедово",
    "geo_lat": 55.4363283,
    "geo_lon": 37.7664984
  },
  {
    "region_type": "обл",
    "region": "Московская",
    "city": "Дрезна",
    "geo_lat": 55.7443143,
    "geo_lon": 38.8498479
  },
  {
    "region_type": "обл",
    "region": "Московская",
    "city": "Дубна",
    "geo_lat": 56.741786,
    "geo_lon": 37.1757223
  },
  {
    "region_type": "обл",
    "region": "Московская",
    "city": "Егорьевск",
    "geo_lat": 55.3830113,
    "geo_lon": 39.0358317
  },
  {
    "region_type": "обл",
    "region": "Московская",
    "city": "Жуковский",
    "geo_lat": 55.599803,
    "geo_lon": 38.1224298
  },
  {
    "region_type": "обл",
    "region": "Московская",
    "city": "Зарайск",
    "geo_lat": 54.762456,
    "geo_lon": 38.8850978
  },
  {
    "region_type": "обл",
    "region": "Московская",
    "city": "Звенигород",
    "geo_lat": 55.7297089,
    "geo_lon": 36.8554029
  },
  {
    "region_type": "обл",
    "region": "Московская",
    "city": "Ивантеевка",
    "geo_lat": 55.9741665,
    "geo_lon": 37.9207539
  },
  {
    "region_type": "обл",
    "region": "Московская",
    "city": "Истра",
    "geo_lat": 55.9062267,
    "geo_lon": 36.8601454
  },
  {
    "region_type": "обл",
    "region": "Московская",
    "city": "Кашира",
    "geo_lat": 54.853337,
    "geo_lon": 38.1904392
  },
  {
    "region_type": "обл",
    "region": "Московская",
    "city": "Клин",
    "geo_lat": 56.3425605,
    "geo_lon": 36.7240032
  },
  {
    "region_type": "обл",
    "region": "Московская",
    "city": "Коломна",
    "geo_lat": 55.102814,
    "geo_lon": 38.7531002
  },
  {
    "region_type": "обл",
    "region": "Московская",
    "city": "Королев",
    "geo_lat": 55.9161773,
    "geo_lon": 37.8545415
  },
  {
    "region_type": "обл",
    "region": "Московская",
    "city": "Котельники",
    "geo_lat": 55.6597925,
    "geo_lon": 37.8631156
  },
  {
    "region_type": "обл",
    "region": "Московская",
    "city": "Красноармейск",
    "geo_lat": 56.105426,
    "geo_lon": 38.140838
  },
  {
    "region_type": "обл",
    "region": "Московская",
    "city": "Красногорск",
    "geo_lat": 55.8317203,
    "geo_lon": 37.3295266
  },
  {
    "region_type": "обл",
    "region": "Московская",
    "city": "Краснозаводск",
    "geo_lat": 56.4409979,
    "geo_lon": 38.2320307
  },
  {
    "region_type": "обл",
    "region": "Московская",
    "city": "Краснознаменск",
    "geo_lat": 55.5978959,
    "geo_lon": 37.0393709
  },
  {
    "region_type": "обл",
    "region": "Московская",
    "city": "Кубинка",
    "geo_lat": 55.5754955,
    "geo_lon": 36.6951995
  },
  {
    "region_type": "обл",
    "region": "Московская",
    "city": "Куровское",
    "geo_lat": 55.5792277,
    "geo_lon": 38.9207723
  },
  {
    "region_type": "обл",
    "region": "Московская",
    "city": "Ликино-Дулёво",
    "geo_lat": 55.7078257,
    "geo_lon": 38.9578093
  },
  {
    "region_type": "обл",
    "region": "Московская",
    "city": "Лобня",
    "geo_lat": 56.0328881,
    "geo_lon": 37.4614035
  },
  {
    "region_type": "обл",
    "region": "Московская",
    "city": "Лосино-Петровский",
    "geo_lat": 55.8713214,
    "geo_lon": 38.200599
  },
  {
    "region_type": "обл",
    "region": "Московская",
    "city": "Луховицы",
    "geo_lat": 54.9652077,
    "geo_lon": 39.0260266
  },
  {
    "region_type": "обл",
    "region": "Московская",
    "city": "Лыткарино",
    "geo_lat": 55.5778163,
    "geo_lon": 37.9033507
  },
  {
    "region_type": "обл",
    "region": "Московская",
    "city": "Люберцы",
    "geo_lat": 55.7003989,
    "geo_lon": 37.9606238
  },
  {
    "region_type": "обл",
    "region": "Московская",
    "city": "Можайск",
    "geo_lat": 55.5069259,
    "geo_lon": 36.024043
  },
  {
    "region_type": "обл",
    "region": "Московская",
    "city": "Мытищи",
    "geo_lat": 55.9105782,
    "geo_lon": 37.7363579
  },
  {
    "region_type": "обл",
    "region": "Московская",
    "city": "Наро-Фоминск",
    "geo_lat": 55.386185,
    "geo_lon": 36.734484
  },
  {
    "region_type": "обл",
    "region": "Московская",
    "city": "Ногинск",
    "geo_lat": 55.8686133,
    "geo_lon": 38.4622104
  },
  {
    "region_type": "обл",
    "region": "Московская",
    "city": "Одинцово",
    "geo_lat": 55.6789455,
    "geo_lon": 37.263686
  },
  {
    "region_type": "обл",
    "region": "Московская",
    "city": "Озеры",
    "geo_lat": 54.8541006,
    "geo_lon": 38.5599196
  },
  {
    "region_type": "обл",
    "region": "Московская",
    "city": "Орехово-Зуево",
    "geo_lat": 55.8151421,
    "geo_lon": 38.9869822
  },
  {
    "region_type": "обл",
    "region": "Московская",
    "city": "Павловский Посад",
    "geo_lat": 55.7807244,
    "geo_lon": 38.6596983
  },
  {
    "region_type": "обл",
    "region": "Московская",
    "city": "Пересвет",
    "geo_lat": 56.4158326,
    "geo_lon": 38.1733534
  },
  {
    "region_type": "обл",
    "region": "Московская",
    "city": "Подольск",
    "geo_lat": 55.4389322,
    "geo_lon": 37.5703482
  },
  {
    "region_type": "обл",
    "region": "Московская",
    "city": "Протвино",
    "geo_lat": 54.8705984,
    "geo_lon": 37.2182749
  },
  {
    "region_type": "обл",
    "region": "Московская",
    "city": "Пушкино",
    "geo_lat": 56.0103638,
    "geo_lon": 37.8471403
  },
  {
    "region_type": "обл",
    "region": "Московская",
    "city": "Пущино",
    "geo_lat": 54.8324412,
    "geo_lon": 37.6210346
  },
  {
    "region_type": "обл",
    "region": "Московская",
    "city": "Раменское",
    "geo_lat": 55.5495132,
    "geo_lon": 38.2728914
  },
  {
    "region_type": "обл",
    "region": "Московская",
    "city": "Реутов",
    "geo_lat": 55.7582621,
    "geo_lon": 37.8618553
  },
  {
    "region_type": "обл",
    "region": "Московская",
    "city": "Рошаль",
    "geo_lat": 55.6632776,
    "geo_lon": 39.8656147
  },
  {
    "region_type": "обл",
    "region": "Московская",
    "city": "Руза",
    "geo_lat": 55.7014744,
    "geo_lon": 36.1959206
  },
  {
    "region_type": "обл",
    "region": "Московская",
    "city": "Сергиев Посад",
    "geo_lat": 56.3062548,
    "geo_lon": 38.1502661
  },
  {
    "region_type": "обл",
    "region": "Московская",
    "city": "Серпухов",
    "geo_lat": 54.9226466,
    "geo_lon": 37.4033859
  },
  {
    "region_type": "обл",
    "region": "Московская",
    "city": "Солнечногорск",
    "geo_lat": 56.185102,
    "geo_lon": 36.977631
  },
  {
    "region_type": "обл",
    "region": "Московская",
    "city": "Старая Купавна",
    "geo_lat": 55.8038532,
    "geo_lon": 38.1426842
  },
  {
    "region_type": "обл",
    "region": "Московская",
    "city": "Ступино",
    "geo_lat": 54.9238928,
    "geo_lon": 38.1186623
  },
  {
    "region_type": "обл",
    "region": "Московская",
    "city": "Талдом",
    "geo_lat": 56.7308564,
    "geo_lon": 37.5276003
  },
  {
    "region_type": "обл",
    "region": "Московская",
    "city": "Фрязино",
    "geo_lat": 55.9590588,
    "geo_lon": 38.0410235
  },
  {
    "region_type": "обл",
    "region": "Московская",
    "city": "Химки",
    "geo_lat": 55.888657,
    "geo_lon": 37.4303702
  },
  {
    "region_type": "обл",
    "region": "Московская",
    "city": "Хотьково",
    "geo_lat": 56.2516982,
    "geo_lon": 37.9396017
  },
  {
    "region_type": "обл",
    "region": "Московская",
    "city": "Черноголовка",
    "geo_lat": 56.0100707,
    "geo_lon": 38.3792047
  },
  {
    "region_type": "обл",
    "region": "Московская",
    "city": "Чехов",
    "geo_lat": 55.1508011,
    "geo_lon": 37.4533252
  },
  {
    "region_type": "обл",
    "region": "Московская",
    "city": "Шатура",
    "geo_lat": 55.5777427,
    "geo_lon": 39.5445712
  },
  {
    "region_type": "обл",
    "region": "Московская",
    "city": "Щелково",
    "geo_lat": 55.9233801,
    "geo_lon": 37.9783707
  },
  {
    "region_type": "обл",
    "region": "Московская",
    "city": "Электрогорск",
    "geo_lat": 55.8780241,
    "geo_lon": 38.7806752
  },
  {
    "region_type": "обл",
    "region": "Московская",
    "city": "Электросталь",
    "geo_lat": 55.7847291,
    "geo_lon": 38.4447045
  },
  {
    "region_type": "обл",
    "region": "Московская",
    "city": "Электроугли",
    "geo_lat": 55.7170877,
    "geo_lon": 38.2192563
  },
  {
    "region_type": "обл",
    "region": "Московская",
    "city": "Яхрома",
    "geo_lat": 56.2890516,
    "geo_lon": 37.4831799
  },
  {
    "region_type": "обл",
    "region": "Мурманская",
    "city": "Апатиты",
    "geo_lat": 67.5677761,
    "geo_lon": 33.4067929
  },
  {
    "region_type": "обл",
    "region": "Мурманская",
    "city": "Гаджиево",
    "geo_lat": 69.2491311,
    "geo_lon": 33.315341
  },
  {
    "region_type": "обл",
    "region": "Мурманская",
    "city": "Заозерск",
    "geo_lat": 69.4003584,
    "geo_lon": 32.4501496
  },
  {
    "region_type": "обл",
    "region": "Мурманская",
    "city": "Заполярный",
    "geo_lat": 69.4132852,
    "geo_lon": 30.7984312
  },
  {
    "region_type": "обл",
    "region": "Мурманская",
    "city": "Кандалакша",
    "geo_lat": 67.1567974,
    "geo_lon": 32.4143218
  },
  {
    "region_type": "обл",
    "region": "Мурманская",
    "city": "Кировск",
    "geo_lat": 67.6150424,
    "geo_lon": 33.663735
  },
  {
    "region_type": "обл",
    "region": "Мурманская",
    "city": "Ковдор",
    "geo_lat": 67.5661417,
    "geo_lon": 30.4741941
  },
  {
    "region_type": "обл",
    "region": "Мурманская",
    "city": "Кола",
    "geo_lat": 68.8786028,
    "geo_lon": 33.0262299
  },
  {
    "region_type": "обл",
    "region": "Мурманская",
    "city": "Мончегорск",
    "geo_lat": 67.9386153,
    "geo_lon": 32.9359719
  },
  {
    "region_type": "обл",
    "region": "Мурманская",
    "city": "Мурманск",
    "geo_lat": 69.007721,
    "geo_lon": 33.0685865
  },
  {
    "region_type": "обл",
    "region": "Мурманская",
    "city": "Оленегорск",
    "geo_lat": 68.1422058,
    "geo_lon": 33.2669407
  },
  {
    "region_type": "обл",
    "region": "Мурманская",
    "city": "Островной",
    "geo_lat": 68.0510344,
    "geo_lon": 39.5077846
  },
  {
    "region_type": "обл",
    "region": "Мурманская",
    "city": "Полярные Зори",
    "geo_lat": 67.373084,
    "geo_lon": 32.4975636
  },
  {
    "region_type": "обл",
    "region": "Мурманская",
    "city": "Полярный",
    "geo_lat": 69.1989583,
    "geo_lon": 33.4508591
  },
  {
    "region_type": "обл",
    "region": "Мурманская",
    "city": "Североморск",
    "geo_lat": 69.0766801,
    "geo_lon": 33.4177759
  },
  {
    "region_type": "обл",
    "region": "Мурманская",
    "city": "Снежногорск",
    "geo_lat": 69.1921409,
    "geo_lon": 33.2383502
  },
  {
    "region_type": "АО",
    "region": "Ненецкий",
    "city": "Нарьян-Мар",
    "geo_lat": 67.6379672,
    "geo_lon": 53.0069565
  },
  {
    "region_type": "обл",
    "region": "Нижегородская",
    "city": "Арзамас",
    "geo_lat": 55.3945814,
    "geo_lon": 43.8408141
  },
  {
    "region_type": "обл",
    "region": "Нижегородская",
    "city": "Балахна",
    "geo_lat": 56.495036,
    "geo_lon": 43.5758423
  },
  {
    "region_type": "обл",
    "region": "Нижегородская",
    "city": "Богородск",
    "geo_lat": 56.1020828,
    "geo_lon": 43.5135442
  },
  {
    "region_type": "обл",
    "region": "Нижегородская",
    "city": "Бор",
    "geo_lat": 56.3565458,
    "geo_lon": 44.0646481
  },
  {
    "region_type": "обл",
    "region": "Нижегородская",
    "city": "Ветлуга",
    "geo_lat": 57.8559204,
    "geo_lon": 45.7761957
  },
  {
    "region_type": "обл",
    "region": "Нижегородская",
    "city": "Володарск",
    "geo_lat": 56.2169751,
    "geo_lon": 43.1596417
  },
  {
    "region_type": "обл",
    "region": "Нижегородская",
    "city": "Ворсма",
    "geo_lat": 55.989943,
    "geo_lon": 43.2718859
  },
  {
    "region_type": "обл",
    "region": "Нижегородская",
    "city": "Выкса",
    "geo_lat": 55.3207727,
    "geo_lon": 42.1678834
  },
  {
    "region_type": "обл",
    "region": "Нижегородская",
    "city": "Горбатов",
    "geo_lat": 56.1307769,
    "geo_lon": 43.0626185
  },
  {
    "region_type": "обл",
    "region": "Нижегородская",
    "city": "Городец",
    "geo_lat": 56.6449218,
    "geo_lon": 43.4723104
  },
  {
    "region_type": "обл",
    "region": "Нижегородская",
    "city": "Дзержинск",
    "geo_lat": 56.2376047,
    "geo_lon": 43.4599416
  },
  {
    "region_type": "обл",
    "region": "Нижегородская",
    "city": "Заволжье",
    "geo_lat": 56.6404286,
    "geo_lon": 43.3872492
  },
  {
    "region_type": "обл",
    "region": "Нижегородская",
    "city": "Княгинино",
    "geo_lat": 55.8205915,
    "geo_lon": 45.032337
  },
  {
    "region_type": "обл",
    "region": "Нижегородская",
    "city": "Кстово",
    "geo_lat": 56.1432084,
    "geo_lon": 44.1664198
  },
  {
    "region_type": "обл",
    "region": "Нижегородская",
    "city": "Кулебаки",
    "geo_lat": 55.4296181,
    "geo_lon": 42.5125538
  },
  {
    "region_type": "обл",
    "region": "Нижегородская",
    "city": "Лукоянов",
    "geo_lat": 55.0326225,
    "geo_lon": 44.4933807
  },
  {
    "region_type": "обл",
    "region": "Нижегородская",
    "city": "Лысково",
    "geo_lat": 56.0262359,
    "geo_lon": 45.035771
  },
  {
    "region_type": "обл",
    "region": "Нижегородская",
    "city": "Навашино",
    "geo_lat": 55.543811,
    "geo_lon": 42.1887089
  },
  {
    "region_type": "обл",
    "region": "Нижегородская",
    "city": "Нижний Новгород",
    "geo_lat": 56.3240627,
    "geo_lon": 44.0053913
  },
  {
    "region_type": "обл",
    "region": "Нижегородская",
    "city": "Павлово",
    "geo_lat": 55.9797564,
    "geo_lon": 43.0995042
  },
  {
    "region_type": "обл",
    "region": "Нижегородская",
    "city": "Первомайск",
    "geo_lat": 54.8675792,
    "geo_lon": 43.8013992
  },
  {
    "region_type": "обл",
    "region": "Нижегородская",
    "city": "Перевоз",
    "geo_lat": 55.5967718,
    "geo_lon": 44.5448369
  },
  {
    "region_type": "обл",
    "region": "Нижегородская",
    "city": "Саров",
    "geo_lat": 54.9228268,
    "geo_lon": 43.3448089
  },
  {
    "region_type": "обл",
    "region": "Нижегородская",
    "city": "Семенов",
    "geo_lat": 56.7889794,
    "geo_lon": 44.4902885
  },
  {
    "region_type": "обл",
    "region": "Нижегородская",
    "city": "Сергач",
    "geo_lat": 55.5201515,
    "geo_lon": 45.4813231
  },
  {
    "region_type": "обл",
    "region": "Нижегородская",
    "city": "Урень",
    "geo_lat": 57.4612572,
    "geo_lon": 45.7833293
  },
  {
    "region_type": "обл",
    "region": "Нижегородская",
    "city": "Чкаловск",
    "geo_lat": 56.7651262,
    "geo_lon": 43.242077
  },
  {
    "region_type": "обл",
    "region": "Нижегородская",
    "city": "Шахунья",
    "geo_lat": 57.6764293,
    "geo_lon": 46.6129009
  },
  {
    "region_type": "обл",
    "region": "Новгородская",
    "city": "Боровичи",
    "geo_lat": 58.3840197,
    "geo_lon": 33.9175929
  },
  {
    "region_type": "обл",
    "region": "Новгородская",
    "city": "Валдай",
    "geo_lat": 57.9823766,
    "geo_lon": 33.2369436
  },
  {
    "region_type": "обл",
    "region": "Новгородская",
    "city": "Великий Новгород",
    "geo_lat": 58.5213846,
    "geo_lon": 31.2755394
  },
  {
    "region_type": "обл",
    "region": "Новгородская",
    "city": "Малая Вишера",
    "geo_lat": 58.8458379,
    "geo_lon": 32.2247401
  },
  {
    "region_type": "обл",
    "region": "Новгородская",
    "city": "Окуловка",
    "geo_lat": 58.3910296,
    "geo_lon": 33.2901557
  },
  {
    "region_type": "обл",
    "region": "Новгородская",
    "city": "Пестово",
    "geo_lat": 58.5973723,
    "geo_lon": 35.8143898
  },
  {
    "region_type": "обл",
    "region": "Новгородская",
    "city": "Сольцы",
    "geo_lat": 58.1201281,
    "geo_lon": 30.309351
  },
  {
    "region_type": "обл",
    "region": "Новгородская",
    "city": "Старая Русса",
    "geo_lat": 57.990737,
    "geo_lon": 31.3554897
  },
  {
    "region_type": "обл",
    "region": "Новгородская",
    "city": "Холм",
    "geo_lat": 57.145108,
    "geo_lon": 31.1787499
  },
  {
    "region_type": "обл",
    "region": "Новгородская",
    "city": "Чудово",
    "geo_lat": 59.1248394,
    "geo_lon": 31.6866241
  },
  {
    "region_type": "обл",
    "region": "Новосибирская",
    "city": "Барабинск",
    "geo_lat": 55.35146,
    "geo_lon": 78.3464506
  },
  {
    "region_type": "обл",
    "region": "Новосибирская",
    "city": "Бердск",
    "geo_lat": 54.7582156,
    "geo_lon": 83.1070605
  },
  {
    "region_type": "обл",
    "region": "Новосибирская",
    "city": "Болотное",
    "geo_lat": 55.6692421,
    "geo_lon": 84.3906889
  },
  {
    "region_type": "обл",
    "region": "Новосибирская",
    "city": "Искитим",
    "geo_lat": 54.6267603,
    "geo_lon": 83.2951244
  },
  {
    "region_type": "обл",
    "region": "Новосибирская",
    "city": "Карасук",
    "geo_lat": 53.7343189,
    "geo_lon": 78.0422967
  },
  {
    "region_type": "обл",
    "region": "Новосибирская",
    "city": "Каргат",
    "geo_lat": 55.1945666,
    "geo_lon": 80.2829495
  },
  {
    "region_type": "обл",
    "region": "Новосибирская",
    "city": "Куйбышев",
    "geo_lat": 55.4685094,
    "geo_lon": 78.3242048
  },
  {
    "region_type": "обл",
    "region": "Новосибирская",
    "city": "Купино",
    "geo_lat": 54.366055,
    "geo_lon": 77.2973368
  },
  {
    "region_type": "обл",
    "region": "Новосибирская",
    "city": "Новосибирск",
    "geo_lat": 55.028191,
    "geo_lon": 82.9211489
  },
  {
    "region_type": "обл",
    "region": "Новосибирская",
    "city": "Обь",
    "geo_lat": 54.9945576,
    "geo_lon": 82.6937181
  },
  {
    "region_type": "обл",
    "region": "Новосибирская",
    "city": "Татарск",
    "geo_lat": 55.2146167,
    "geo_lon": 75.9739914
  },
  {
    "region_type": "обл",
    "region": "Новосибирская",
    "city": "Тогучин",
    "geo_lat": 55.2251631,
    "geo_lon": 84.4104118
  },
  {
    "region_type": "обл",
    "region": "Новосибирская",
    "city": "Черепаново",
    "geo_lat": 54.2206476,
    "geo_lon": 83.3724521
  },
  {
    "region_type": "обл",
    "region": "Новосибирская",
    "city": "Чулым",
    "geo_lat": 55.0906867,
    "geo_lon": 80.9592508
  },
  {
    "region_type": "обл",
    "region": "Омская",
    "city": "Исилькуль",
    "geo_lat": 54.9096002,
    "geo_lon": 71.2816284
  },
  {
    "region_type": "обл",
    "region": "Омская",
    "city": "Калачинск",
    "geo_lat": 55.0598155,
    "geo_lon": 74.5653644
  },
  {
    "region_type": "обл",
    "region": "Омская",
    "city": "Называевск",
    "geo_lat": 55.5689323,
    "geo_lon": 71.3503426
  },
  {
    "region_type": "обл",
    "region": "Омская",
    "city": "Омск",
    "geo_lat": 54.9848566,
    "geo_lon": 73.3674517
  },
  {
    "region_type": "обл",
    "region": "Омская",
    "city": "Тара",
    "geo_lat": 56.9160511,
    "geo_lon": 74.3649194
  },
  {
    "region_type": "обл",
    "region": "Омская",
    "city": "Тюкалинск",
    "geo_lat": 55.8703415,
    "geo_lon": 72.1954747
  },
  {
    "region_type": "обл",
    "region": "Оренбургская",
    "city": "Абдулино",
    "geo_lat": 53.6778906,
    "geo_lon": 53.6472483
  },
  {
    "region_type": "обл",
    "region": "Оренбургская",
    "city": "Бугуруслан",
    "geo_lat": 53.6523728,
    "geo_lon": 52.4326853
  },
  {
    "region_type": "обл",
    "region": "Оренбургская",
    "city": "Бузулук",
    "geo_lat": 52.7881277,
    "geo_lon": 52.2624877
  },
  {
    "region_type": "обл",
    "region": "Оренбургская",
    "city": "Гай",
    "geo_lat": 51.4649189,
    "geo_lon": 58.4436875
  },
  {
    "region_type": "обл",
    "region": "Оренбургская",
    "city": "Кувандык",
    "geo_lat": 51.4783857,
    "geo_lon": 57.3612636
  },
  {
    "region_type": "обл",
    "region": "Оренбургская",
    "city": "Медногорск",
    "geo_lat": 51.4037617,
    "geo_lon": 57.583163
  },
  {
    "region_type": "обл",
    "region": "Оренбургская",
    "city": "Новотроицк",
    "geo_lat": 51.1964202,
    "geo_lon": 58.3018192
  },
  {
    "region_type": "обл",
    "region": "Оренбургская",
    "city": "Оренбург",
    "geo_lat": 51.7875092,
    "geo_lon": 55.1018828
  },
  {
    "region_type": "обл",
    "region": "Оренбургская",
    "city": "Орск",
    "geo_lat": 51.2294282,
    "geo_lon": 58.4752777
  },
  {
    "region_type": "обл",
    "region": "Оренбургская",
    "city": "Соль-Илецк",
    "geo_lat": 51.1633736,
    "geo_lon": 54.9896726
  },
  {
    "region_type": "обл",
    "region": "Оренбургская",
    "city": "Сорочинск",
    "geo_lat": 52.426685,
    "geo_lon": 53.1542745
  },
  {
    "region_type": "обл",
    "region": "Оренбургская",
    "city": "Ясный",
    "geo_lat": 51.036838,
    "geo_lon": 59.874344
  },
  {
    "region_type": "обл",
    "region": "Орловская",
    "city": "Болхов",
    "geo_lat": 53.4438496,
    "geo_lon": 36.0076833
  },
  {
    "region_type": "обл",
    "region": "Орловская",
    "city": "Дмитровск",
    "geo_lat": 52.5054851,
    "geo_lon": 35.1415009
  },
  {
    "region_type": "обл",
    "region": "Орловская",
    "city": "Ливны",
    "geo_lat": 52.4284558,
    "geo_lon": 37.6039506
  },
  {
    "region_type": "обл",
    "region": "Орловская",
    "city": "Малоархангельск",
    "geo_lat": 52.4002192,
    "geo_lon": 36.5038579
  },
  {
    "region_type": "обл",
    "region": "Орловская",
    "city": "Мценск",
    "geo_lat": 53.2788438,
    "geo_lon": 36.5749105
  },
  {
    "region_type": "обл",
    "region": "Орловская",
    "city": "Новосиль",
    "geo_lat": 52.97454,
    "geo_lon": 37.0437146
  },
  {
    "region_type": "обл",
    "region": "Орловская",
    "city": "Орёл",
    "geo_lat": 52.9671298,
    "geo_lon": 36.0696427
  },
  {
    "region_type": "обл",
    "region": "Пензенская",
    "city": "Белинский",
    "geo_lat": 52.9640996,
    "geo_lon": 43.4183212
  },
  {
    "region_type": "обл",
    "region": "Пензенская",
    "city": "Городище",
    "geo_lat": 53.2726916,
    "geo_lon": 45.7026142
  },
  {
    "region_type": "обл",
    "region": "Пензенская",
    "city": "Заречный",
    "geo_lat": 53.1960836,
    "geo_lon": 45.1689907
  },
  {
    "region_type": "обл",
    "region": "Пензенская",
    "city": "Каменка",
    "geo_lat": 53.1855463,
    "geo_lon": 44.0469717
  },
  {
    "region_type": "обл",
    "region": "Пензенская",
    "city": "Кузнецк",
    "geo_lat": 53.1130888,
    "geo_lon": 46.605092
  },
  {
    "region_type": "обл",
    "region": "Пензенская",
    "city": "Нижний Ломов",
    "geo_lat": 53.5300905,
    "geo_lon": 43.6730217
  },
  {
    "region_type": "обл",
    "region": "Пензенская",
    "city": "Никольск",
    "geo_lat": 53.7137496,
    "geo_lon": 46.0799857
  },
  {
    "region_type": "обл",
    "region": "Пензенская",
    "city": "Пенза",
    "geo_lat": 53.1753314,
    "geo_lon": 45.0348625
  },
  {
    "region_type": "обл",
    "region": "Пензенская",
    "city": "Сердобск",
    "geo_lat": 52.4697595,
    "geo_lon": 44.2122414
  },
  {
    "region_type": "обл",
    "region": "Пензенская",
    "city": "Спасск",
    "geo_lat": 53.9271974,
    "geo_lon": 43.1859073
  },
  {
    "region_type": "обл",
    "region": "Пензенская",
    "city": "Сурск",
    "geo_lat": 53.0761357,
    "geo_lon": 45.6910796
  },
  {
    "region_type": "край",
    "region": "Пермский",
    "city": "Александровск",
    "geo_lat": 59.1613221,
    "geo_lon": 57.5763459
  },
  {
    "region_type": "край",
    "region": "Пермский",
    "city": "Березники",
    "geo_lat": 59.4079923,
    "geo_lon": 56.8039427
  },
  {
    "region_type": "край",
    "region": "Пермский",
    "city": "Верещагино",
    "geo_lat": 58.0797571,
    "geo_lon": 54.6581309
  },
  {
    "region_type": "край",
    "region": "Пермский",
    "city": "Горнозаводск",
    "geo_lat": 58.3742532,
    "geo_lon": 58.3231716
  },
  {
    "region_type": "край",
    "region": "Пермский",
    "city": "Гремячинск",
    "geo_lat": 58.5626082,
    "geo_lon": 57.8520572
  },
  {
    "region_type": "край",
    "region": "Пермский",
    "city": "Губаха",
    "geo_lat": 58.8371721,
    "geo_lon": 57.554533
  },
  {
    "region_type": "край",
    "region": "Пермский",
    "city": "Добрянка",
    "geo_lat": 58.469685,
    "geo_lon": 56.4130737
  },
  {
    "region_type": "край",
    "region": "Пермский",
    "city": "Кизел",
    "geo_lat": 59.0512783,
    "geo_lon": 57.6471028
  },
  {
    "region_type": "край",
    "region": "Пермский",
    "city": "Красновишерск",
    "geo_lat": 60.3901321,
    "geo_lon": 57.0535682
  },
  {
    "region_type": "край",
    "region": "Пермский",
    "city": "Краснокамск",
    "geo_lat": 58.0822065,
    "geo_lon": 55.7479936
  },
  {
    "region_type": "край",
    "region": "Пермский",
    "city": "Кудымкар",
    "geo_lat": 59.0167925,
    "geo_lon": 54.6572508
  },
  {
    "region_type": "край",
    "region": "Пермский",
    "city": "Кунгур",
    "geo_lat": 57.4283296,
    "geo_lon": 56.9438656
  },
  {
    "region_type": "край",
    "region": "Пермский",
    "city": "Лысьва",
    "geo_lat": 58.0995875,
    "geo_lon": 57.8086825
  },
  {
    "region_type": "край",
    "region": "Пермский",
    "city": "Нытва",
    "geo_lat": 57.9336725,
    "geo_lon": 55.3356084
  },
  {
    "region_type": "край",
    "region": "Пермский",
    "city": "Оса",
    "geo_lat": 57.2889515,
    "geo_lon": 55.4688668
  },
  {
    "region_type": "край",
    "region": "Пермский",
    "city": "Оханск",
    "geo_lat": 57.7180034,
    "geo_lon": 55.3872469
  },
  {
    "region_type": "край",
    "region": "Пермский",
    "city": "Очер",
    "geo_lat": 57.8852686,
    "geo_lon": 54.7161091
  },
  {
    "region_type": "край",
    "region": "Пермский",
    "city": "Пермь",
    "geo_lat": 58.0102583,
    "geo_lon": 56.2342034
  },
  {
    "region_type": "край",
    "region": "Пермский",
    "city": "Соликамск",
    "geo_lat": 59.6482998,
    "geo_lon": 56.771009
  },